{"rows":10,"os":"0","page":"1","total":"1","projects":{"P049395":{"id":"P049395","projectfinancialtype":"IDA","regionname":"Africa","prodline":"PE","lendinginstr":"Specific Investment Loan","lendinginstrtype":"IN","envassesmentcategorycode":"B","supplementprojectflg":"N","productlinetype":"L","projectstatusdisplay":"Closed","status":"Closed","project_name":"ENERGY ACCESS PROJECT","board_approval_month":"September","approvalfy":"2003","boardapprovaldate":"2002-09-19T00:00:00Z","closingdate":"2013-06-30T00:00:00Z","lendprojectcost":"199,120,000","ibrdcommamt":"0","idacommamt":"132,700,000","totalamt":"132,700,000","grantamt":"0","borrower":"EET","impagency":"IIST","url":"http://www.worldbank.org/projects/P049395/energy-access-project?lang=en","countryshortname":"Ethiopia","teamleaderupi":"339183","prodlinetext":"IBRD/IDA","keywords":{"cdata":"access to electricity, capacity building, efficient use, efficient use of energy, Electric Power, electricity supply, environmental degradation, Financing Plan, ID, Implementing Agency, Ministry of Transport, Power Corporation, private investment, renewable energy, renewable energy technologies, technical support"},"project_abstract":{"cdata":"The objective of the Energy Access Project for Ethiopia are to: (i) establish a sustainable program for expansion of access to electricity and for improvement of the quality and adequacy of the electricity supply in the Borrowers territory; (ii) reduce environmental degradation, and improve the supply and efficient use of energy; (iii) reduce the barrier to the wide spread use of renewable energy technologies; and (iv) provide technical support to the Borrower for the institutional and capacity building of key sector agencies, and for regulatory, fiscal and institutional reforms in the mining sector to attract private investment. The original credit components remain unchanged. However, the planned activities to be financed with proceeds of the additional credit related to the component one urban distribution and load dispatch will be cancelled entirely under the additional credit. A significant amount of the activities under component two rural electrification - grid based expansion will also be cancelled. Funds will be reallocated to increase the financing of component two (b) and five to carry out the activities described in paragraphs 12 and 16 respectively."},"country_namecode":"Federal Democratic Republic of Ethiopia!$!ET","sector1":{"Name":"Transmission and Distribution of Electricity","Percent":80},"sector2":{"Name":"General public administration sector","Percent":8},"sector3":{"Name":"Forestry","Percent":5},"sector4":{"Name":"Other Renewable Energy","Percent":5},"sector5":{"Name":"Other industry","Percent":2},"theme1":{"Name":"Pollution management and environmental health","Percent":13},"theme2":{"Name":"Climate change","Percent":24},"theme3":{"Name":"Urban services and housing for the poor","Percent":25},"theme4":{"Name":"Infrastructure services for private sector development","Percent":13},"theme5":{"Name":"Rural services and infrastructure","Percent":25},"totalcommamt":"132,700,000","sector":[{"Name":"Transmission and Distribution of Electricity"},{"Name":"General public administration sector"},{"Name":"Forestry"},{"Name":"Other Renewable Energy"},{"Name":"Other industry"}],"docty":"Implementation Completion and Results Report,Implementation Status and Results Report,Project Paper,Project Paper,Implementation Status and Results Report,Implementation Status and Results Report,Implementation Status and Results Report,Agreement,Project Paper,Procurement Plan,Grant or Trust Fund Agreement,Project Appraisal Document,Project Agreement,Credit Agreement,Project Appraisal Document,Integrated Safeguards Data Sheet,Resettlement Plan,Project Information Document,Environmental Assessment","countrycode":"ET","sectorcode":"YW,LR,AT,BZ,LT","mjsector_namecode":[{"name":"Energy and mining","code":"LX"},{"name":"Public Administration, Law, and Justice","code":"BX"},{"name":"Agriculture, fishing, and forestry","code":"AX"},{"name":"Energy and mining","code":"LX"},{"name":"Industry and trade","code":"YX"}],"locations":[{"geoLocId":"0000326652","geoLocName":"Walga Wenz","latitude":"8.3333302","longitude":"37.466671","country":"ET"},{"geoLocId":"0000326706","geoLocName":"Wadera","latitude":"5.75","longitude":"39.316669","country":"ET"},{"geoLocId":"0000328776","geoLocName":"Seru","latitude":"7.6666698","longitude":"40.200001","country":"ET"},{"geoLocId":"0000328953","geoLocName":"Sela Dingay","latitude":"9.9543304","longitude":"39.630791","country":"ET"},{"geoLocId":"0000329376","geoLocName":"Sali","latitude":"11.71667","longitude":"38.349998","country":"ET"},{"geoLocId":"0000329412","geoLocName":"Saja","latitude":"7.96667","longitude":"37.433331","country":"ET"},{"geoLocId":"0000329605","geoLocName":"Robe","latitude":"9.6082697","longitude":"39.135502","country":"ET"},{"geoLocId":"0000330158","geoLocName":"Nefas Mewch'a","latitude":"11.73333","longitude":"38.466671","country":"ET"},{"geoLocId":"0000330186","geoLocName":"Nazret","latitude":"8.5500002","longitude":"39.26667","country":"ET"},{"geoLocId":"0000330866","geoLocName":"Mesela","latitude":"9.0776596","longitude":"41.174541","country":"ET"},{"geoLocId":"0000330947","geoLocName":"Meraro","latitude":"7.4166698","longitude":"39.25","country":"ET"},{"geoLocId":"0000331197","geoLocName":"Mekane Iyesus","latitude":"11.63333","longitude":"38.066669","country":"ET"},{"geoLocId":"0000332519","geoLocName":"Kumbi","latitude":"8.5666704","longitude":"41.466671","country":"ET"},{"geoLocId":"0000332562","geoLocName":"Kula","latitude":"7.96667","longitude":"39.700001","country":"ET"},{"geoLocId":"0000332836","geoLocName":"Kon Abo","latitude":"11.71667","longitude":"39.150002","country":"ET"},{"geoLocId":"0000333027","geoLocName":"Kimir Dingay","latitude":"11.81667","longitude":"38.216671","country":"ET"},{"geoLocId":"0000333439","geoLocName":"Kela","latitude":"7.7333298","longitude":"39.566669","country":"ET"},{"geoLocId":"0000333517","geoLocName":"K'ebri Beyah","latitude":"9.10361","longitude":"43.174721","country":"ET"},{"geoLocId":"0000333595","geoLocName":"Karamile","latitude":"9.3768396","longitude":"41.377441","country":"ET"},{"geoLocId":"0000334898","geoLocName":"Hartishek","latitude":"9.1572199","longitude":"43.354172","country":"ET"},{"geoLocId":"0000334902","geoLocName":"Harshin","latitude":"9.2169399","longitude":"43.58778","country":"ET"},{"geoLocId":"0000334933","geoLocName":"Harekelo","latitude":"5.3833299","longitude":"39.533329","country":"ET"},{"geoLocId":"0000335136","geoLocName":"Hamusit","latitude":"11.78333","longitude":"37.566669","country":"ET"},{"geoLocId":"0000335316","geoLocName":"Hadew","latitude":"9.3636103","longitude":"42.669441","country":"ET"},{"geoLocId":"0000336215","geoLocName":"Gof Gof","latitude":"11.75","longitude":"38.400002","country":"ET"},{"geoLocId":"0000336563","geoLocName":"Gibe","latitude":"9.53333","longitude":"38.599998","country":"ET"},{"geoLocId":"0000336820","geoLocName":"Geregera","latitude":"11.76667","longitude":"38.75","country":"ET"},{"geoLocId":"0000337877","geoLocName":"Fedis","latitude":"9.2503796","longitude":"42.09164","country":"ET"},{"geoLocId":"0000337996","geoLocName":"Federal Democratic Republic of Ethiopia","latitude":"9","longitude":"39.5","country":"ET"},{"geoLocId":"0000338750","geoLocName":"Dobi","latitude":"9.7333298","longitude":"36.833328","country":"ET"},{"geoLocId":"0000338832","geoLocName":"Dire Dawa","latitude":"9.5930595","longitude":"41.866112","country":"ET"},{"geoLocId":"0000339004","geoLocName":"Diksis","latitude":"8.0500002","longitude":"39.549999","country":"ET"},{"geoLocId":"0000339666","geoLocName":"Debre Zeyit","latitude":"8.7522497","longitude":"38.978458","country":"ET"},{"geoLocId":"0000339865","geoLocName":"Dawe","latitude":"9.2622204","longitude":"41.860561","country":"ET"},{"geoLocId":"0000340051","geoLocName":"Damot","latitude":"11.76667","longitude":"38.283329","country":"ET"},{"geoLocId":"0000340121","geoLocName":"Dalocha","latitude":"7.78333","longitude":"38.25","country":"ET"},{"geoLocId":"0000341680","geoLocName":"Boreda","latitude":"9.3353996","longitude":"41.28569","country":"ET"},{"geoLocId":"0000341826","geoLocName":"Boko","latitude":"6.9333301","longitude":"40.150002","country":"ET"},{"geoLocId":"0000341963","geoLocName":"Bitata","latitude":"5.46667","longitude":"39.48333","country":"ET"},{"geoLocId":"0000342446","geoLocName":"Bele","latitude":"6.7666702","longitude":"40.433331","country":"ET"},{"geoLocId":"0000342562","geoLocName":"Bedeno","latitude":"9.1097202","longitude":"41.631939","country":"ET"},{"geoLocId":"0000342884","geoLocName":"Bahir Dar","latitude":"11.59364","longitude":"37.39077","country":"ET"},{"geoLocId":"0000343088","geoLocName":"Awubere","latitude":"9.6344404","longitude":"43.244438","country":"ET"},{"geoLocId":"0000343291","geoLocName":"The State of Benishangul-Gumuz","latitude":"10","longitude":"34.5","country":"ET"},{"geoLocId":"0000343591","geoLocName":"Arek'it","latitude":"10.37225","longitude":"39.709469","country":"ET"},{"geoLocId":"0000344655","geoLocName":"Agat'","latitude":"11.6","longitude":"38.466671","country":"ET"},{"geoLocId":"0000344979","geoLocName":"Addis Ababa","latitude":"9.0249701","longitude":"38.746891","country":"ET"},{"geoLocId":"0000345408","geoLocName":"Adele","latitude":"8.5546103","longitude":"41.02224","country":"ET"},{"geoLocId":"0000345418","geoLocName":"Adeda","latitude":"11.51667","longitude":"38.333328","country":"ET"},{"geoLocId":"0000345781","geoLocName":"Abelti","latitude":"8.1666698","longitude":"37.566669","country":"ET"},{"geoLocId":"0000444179","geoLocName":"Afar Kilil","latitude":"12","longitude":"41.5","country":"ET"},{"geoLocId":"0000444180","geoLocName":"Amara Kilil","latitude":"11.5","longitude":"38.5","country":"ET"},{"geoLocId":"0000444182","geoLocName":"Dire Dawa Region","latitude":"9.5670004","longitude":"42.014","country":"ET"},{"geoLocId":"0000444183","geoLocName":"Gambela Regional State","latitude":"7.8333302","longitude":"34.5","country":"ET"},{"geoLocId":"0000444184","geoLocName":"Harari Hizb Kilil","latitude":"9.25","longitude":"42.166672","country":"ET"},{"geoLocId":"0000444185","geoLocName":"Oromiya Kilil","latitude":"8","longitude":"39","country":"ET"},{"geoLocId":"0000444186","geoLocName":"Sumale Kilil","latitude":"7","longitude":"44","country":"ET"},{"geoLocId":"0000444187","geoLocName":"Tigray Kilil","latitude":"14.16667","longitude":"38.833328","country":"ET"},{"geoLocId":"0000444188","geoLocName":"\"Southern Nations, Nationalities, and People's Regional State","latitude":"6.05862","longitude":"36.727299","country":"ET"},{"geoLocId":"0006942033","geoLocName":"Tiya","latitude":"8.4333296","longitude":"38.616669","country":"ET"}],"mjtheme":["Environment and natural resources management","Environment and natural resources management","Urban development","Financial and private sector development","Rural development"],"themecode":"78,39,71,81,84","mjthemecode":"11,11,9,4,10","mjtheme_namecode":[{"name":"Environment and natural resources management","code":"11"},{"name":"Environment and natural resources management","code":"11"},{"name":"Urban development","code":"9"},{"name":"Financial and private sector development","code":"4"},{"name":"Rural development","code":"10"}],"sector_namecode":[{"name":"Transmission and Distribution of Electricity","code":"LT"},{"name":"General public administration sector","code":"BZ"},{"name":"Forestry","code":"AT"},{"name":"Other Renewable Energy","code":"LR"},{"name":"Other industry","code":"YW"}],"theme_namecode":[{"name":"Pollution management and environmental health","code":"84"},{"name":"Climate change","code":"81"},{"name":"Urban services and housing for the poor","code":"71"},{"name":"Infrastructure services for private sector development","code":"39"},{"name":"Rural services and infrastructure","code":"78"}],"source":"IBRD","majorsector_percent":[{"Name":"Energy and mining","Percent":80},{"Name":"Public Administration, Law, and Justice","Percent":8},{"Name":"Agriculture, fishing, and forestry","Percent":5},{"Name":"Energy and mining","Percent":5},{"Name":"Industry and trade","Percent":2}],"projectdocs":[{"DocTypeDesc":"Implementation Completion and Results Report (ICR),  Vol.1","DocType":"ICR","EntityID":"000442464_20140701102429","DocURL":"http://www-wds.worldbank.org/servlet/WDSServlet?pcont=details&eid=000442464_20140701102429","DocDate":"30-MAY-2014"},{"DocTypeDesc":"Implementation Status and Results Report (ISRR),  Vol.1","DocType":"ISRR","EntityID":"090224b081bc6b3a_1_0","DocURL":"http://www-wds.worldbank.org/servlet/WDSServlet?pcont=details&eid=090224b081bc6b3a_1_0","DocDate":"17-MAY-2013"},{"DocTypeDesc":"Project Paper (PJPR),  Vol.2","DocType":"PJPR","EntityID":"000445729_20130516092432","DocURL":"http://www-wds.worldbank.org/servlet/WDSServlet?pcont=details&eid=000445729_20130516092432","DocDate":"01-MAY-2013"},{"DocTypeDesc":"Project Paper (PJPR),  Vol.1","DocType":"PJPR","EntityID":"000445729_20130516092306","DocURL":"http://www-wds.worldbank.org/servlet/WDSServlet?pcont=details&eid=000445729_20130516092306","DocDate":"01-MAY-2013"},{"DocTypeDesc":"Implementation Status and Results Report (ISRR),  Vol.1","DocType":"ISRR","EntityID":"0000A8056_2012063016382469","DocURL":"http://www-wds.worldbank.org/servlet/WDSServlet?pcont=details&eid=0000A8056_2012063016382469","DocDate":"30-JUN-2012"},{"DocTypeDesc":"Implementation Status and Results Report (ISRR),  Vol.1","DocType":"ISRR","EntityID":"0000A8056_2011121810091153","DocURL":"http://www-wds.worldbank.org/servlet/WDSServlet?pcont=details&eid=0000A8056_2011121810091153","DocDate":"18-DEC-2011"},{"DocTypeDesc":"Implementation Status and Results Report (ISRR),  Vol.1","DocType":"ISRR","EntityID":"0000A8056_2011032702513432","DocURL":"http://www-wds.worldbank.org/servlet/WDSServlet?pcont=details&eid=0000A8056_2011032702513432","DocDate":"27-MAR-2011"},{"DocTypeDesc":"Agreement (AGR),  Vol.","DocType":"AGR","EntityID":"000171540_2010082511222304","DocURL":"http://www-wds.worldbank.org/servlet/WDSServlet?pcont=details&eid=000171540_2010082511222304","DocDate":"17-AUG-2010"},{"DocTypeDesc":"Project Paper (PJPR),  Vol.1","DocType":"PJPR","EntityID":"000333037_20100615002712","DocURL":"http://www-wds.worldbank.org/servlet/WDSServlet?pcont=details&eid=000333037_20100615002712","DocDate":"02-JUN-2010"},{"DocTypeDesc":"Procurement Plan (PROP),  Vol.1","DocType":"PROP","EntityID":"000334955_20080528044653","DocURL":"http://www-wds.worldbank.org/servlet/WDSServlet?pcont=details&eid=000334955_20080528044653","DocDate":"01-NOV-2007"},{"DocTypeDesc":"Grant or Trust Fund Agreement (),  Vol.","DocType":"000082466_2006022811401700","EntityID":"http://www-wds.worldbank.org/servlet/WDSServlet?pcont=details&eid=000082466_2006022811401700","DocURL":"12-AUG-2005"},{"DocTypeDesc":"Project Appraisal Document (PAD),  Vol.1","DocType":"PAD","EntityID":"000090341_20050712134802","DocURL":"http://www-wds.worldbank.org/servlet/WDSServlet?pcont=details&eid=000090341_20050712134802","DocDate":"27-JUN-2005"},{"DocTypeDesc":"Project Agreement (),  Vol.","DocType":"000114496_2004090201324925","EntityID":"http://www-wds.worldbank.org/servlet/WDSServlet?pcont=details&eid=000114496_2004090201324925","DocURL":"26-SEP-2002"},{"DocTypeDesc":"Credit Agreement (),  Vol.","DocType":"000114496_2004090201324724","EntityID":"http://www-wds.worldbank.org/servlet/WDSServlet?pcont=details&eid=000114496_2004090201324724","DocURL":"26-SEP-2002"},{"DocTypeDesc":"Project Appraisal Document (PAD),  Vol.1","DocType":"PAD","EntityID":"000094946_02062504004880","DocURL":"http://www-wds.worldbank.org/servlet/WDSServlet?pcont=details&eid=000094946_02062504004880","DocDate":"04-JUN-2002"},{"DocTypeDesc":"Integrated Safeguards Data Sheet (ISDS),  Vol.1","DocType":"ISDS","EntityID":"000094946_02051704110597","DocURL":"http://www-wds.worldbank.org/servlet/WDSServlet?pcont=details&eid=000094946_02051704110597","DocDate":"10-MAY-2002"},{"DocTypeDesc":"Resettlement Plan (RPL),  Vol.1","DocType":"RPL","EntityID":"000094946_03060504233354","DocURL":"http://www-wds.worldbank.org/servlet/WDSServlet?pcont=details&eid=000094946_03060504233354","DocDate":"23-APR-2002"},{"DocTypeDesc":"Project Information Document (PID),  Vol.1","DocType":"PID","EntityID":"000094946_02032804142976","DocURL":"http://www-wds.worldbank.org/servlet/WDSServlet?pcont=details&eid=000094946_02032804142976","DocDate":"26-MAR-2002"},{"DocTypeDesc":"Environmental Assessment (EA),  Vol.1","DocType":"EA","EntityID":"000094946_02052904093976","DocURL":"http://www-wds.worldbank.org/servlet/WDSServlet?pcont=details&eid=000094946_02052904093976","DocDate":"28-FEB-2002"}],"countryname":"Federal Democratic Republic of Ethiopia"}},"facets":{}}