{"rows":10,"os":"0","page":"1","total":"1","projects":{"P055085":{"id":"P055085","projectfinancialtype":"IBRD","regionname":"Latin America and Caribbean","prodline":"PE","lendinginstr":"Specific Investment Loan","lendinginstrtype":"IN","envassesmentcategorycode":"B","supplementprojectflg":"N","productlinetype":"L","projectstatusdisplay":"Closed","status":"Closed","project_name":"SECOND RURAL AND MAIN ROADS PROJECT","board_approval_month":"May","approvalfy":"2003","boardapprovaldate":"2003-05-06T00:00:00Z","closingdate":"2013-09-30T00:00:00Z","lendprojectcost":"63,720,000","ibrdcommamt":"46,700,000","idacommamt":"0","totalamt":"46,700,000","grantamt":"0","borrower":"EPULIC","impagency":"CI I","url":"http://www.worldbank.org/projects/P055085/second-rural-main-roads-project?lang=en","countryshortname":"Guatemala","teamleaderupi":"316166","prodlinetext":"IBRD/IDA","keywords":{"cdata":"beneficiary involvement, community participation, ROADS, RURAL, rural areas, rural communities, rural poverty, Safeguard Policies, schools, social cohesion"},"project_abstract":{"cdata":"The goal of the Second Rural and Main Roads Project for Guatemala is to contribute reducing rural poverty and build social cohesion by improving and maintaining access in rural areas to markets, schools, health centers and other social and economic infrastructure through broadened community participation. The closing date for project will be extended from December 31, 2011 until September 30, 2012. The extension is necessary to support the implementation of the Corrective Action Plan to completion and to thus resolve all outstanding cases of involuntary resettlement. This includes principally the execution of contracts currently in the procurement stage to reconstruct houses and structures affected by the secondary road improvements carried out in Huehuetenango department. The extension will also support the completion of ongoing contracts for tertiary road and bridge improvements which will contribute towards a satisfactory outcome for the project as well as the completion of an impact evaluation study."},"country_namecode":"Republic of Guatemala!$!GT","sector1":{"Name":"Rural and Inter-Urban Roads and Highways","Percent":90},"sector2":{"Name":"Sub-national government administration","Percent":10},"theme1":{"Name":"Rural services and infrastructure","Percent":67},"theme2":{"Name":"Participation and civic engagement","Percent":33},"totalcommamt":"46,700,000","sector":[{"Name":"Rural and Inter-Urban Roads and Highways"},{"Name":"Sub-national government administration"}],"docty":"Implementation Completion and Results Report,Implementation Status and Results Report,Implementation Status and Results Report,Implementation Status and Results Report,Aide Memoire,Project Paper,Aide Memoire,Project Paper,Implementation Status and Results Report,Project Paper,Project Paper,Implementation Status and Results Report,Agreement,Integrated Safeguards Data Sheet,Project Paper,Project Paper,Project Paper,Implementation Status and Results Report,Indigenous Peoples Plan,Resettlement Plan,Procurement Plan,Implementation Status and Results Report,Implementation Status and Results Report,Brief,Project Paper,Project Paper,Procurement Plan,Loan Agreement,Loan Agreement,Resettlement Plan,Project Information Document,Project Information Document,Integrated Safeguards Data Sheet,Environmental Assessment","countrycode":"GT","sectorcode":"BH,TI","mjsector_namecode":[{"name":"Transportation","code":"TX"},{"name":"Public Administration, Law, and Justice","code":"BX"}],"locations":[{"geoLocId":"0003587672","geoLocName":"Yalambojoch","latitude":"15.98333","longitude":"-91.566673","country":"GT"},{"geoLocId":"0003587784","geoLocName":"X\u00e9mal","latitude":"15.41667","longitude":"-91.699997","country":"GT"},{"geoLocId":"0003587931","geoLocName":"Vilil","latitude":"15.85","longitude":"-91.650002","country":"GT"},{"geoLocId":"0003588307","geoLocName":"Municipio de Todos Santos Cuchumat\u00e1n","latitude":"15.51667","longitude":"-91.616669","country":"GT"},{"geoLocId":"0003588308","geoLocName":"Todos Santos Cuchumat\u00e1n","latitude":"15.51667","longitude":"-91.616669","country":"GT"},{"geoLocId":"0003588323","geoLocName":"Tixel","latitude":"15.43333","longitude":"-91.76667","country":"GT"},{"geoLocId":"0003588473","geoLocName":"Municipio de Tectit\u00e1n","latitude":"15.33333","longitude":"-92.033333","country":"GT"},{"geoLocId":"0003588612","geoLocName":"Tacan\u00e1","latitude":"15.23932","longitude":"-92.06736","country":"GT"},{"geoLocId":"0003589102","geoLocName":"Municipio de Santiago Chimaltenango","latitude":"15.50739","longitude":"-91.685188","country":"GT"},{"geoLocId":"0003589103","geoLocName":"Santiago Chimaltenango","latitude":"15.46667","longitude":"-91.716667","country":"GT"},{"geoLocId":"0003589464","geoLocName":"Municipio de Santa B\u00e1rbara","latitude":"15.31667","longitude":"-91.616669","country":"GT"},{"geoLocId":"0003589497","geoLocName":"Municipio de Santa Ana Huista","latitude":"15.68085","longitude":"-91.820053","country":"GT"},{"geoLocId":"0003589540","geoLocName":"Municipio de San Sebasti\u00e1n Huehuetenango","latitude":"15.38333","longitude":"-91.583328","country":"GT"},{"geoLocId":"0003589578","geoLocName":"Municipio de San Rafael Petzal","latitude":"15.40536","longitude":"-91.663567","country":"GT"},{"geoLocId":"0003589579","geoLocName":"San Rafael Petzal","latitude":"15.40487","longitude":"-91.664513","country":"GT"},{"geoLocId":"0003589631","geoLocName":"Municipio de San Pedro Necta","latitude":"15.5","longitude":"-91.76667","country":"GT"},{"geoLocId":"0003589632","geoLocName":"San Pedro Necta","latitude":"15.49142","longitude":"-91.765511","country":"GT"},{"geoLocId":"0003589733","geoLocName":"Municipio de San Miguel Acat\u00e1n","latitude":"15.7","longitude":"-91.616669","country":"GT"},{"geoLocId":"0003589734","geoLocName":"San Miguel Acat\u00e1n","latitude":"15.7","longitude":"-91.616669","country":"GT"},{"geoLocId":"0003589769","geoLocName":"Municipio de San Mateo Ixtat\u00e1n","latitude":"15.83333","longitude":"-91.48333","country":"GT"},{"geoLocId":"0003589801","geoLocName":"Departamento de San Marcos","latitude":"15","longitude":"-91.916672","country":"GT"},{"geoLocId":"0003589924","geoLocName":"Municipio de San Juan Atit\u00e1n","latitude":"15.43333","longitude":"-91.633331","country":"GT"},{"geoLocId":"0003590187","geoLocName":"Municipio de San Gaspar Ixchil","latitude":"15.38333","longitude":"-91.716667","country":"GT"},{"geoLocId":"0003590457","geoLocName":"Municipio de San Antonio Huista","latitude":"15.65947","longitude":"-91.772324","country":"GT"},{"geoLocId":"0003590779","geoLocName":"R\u00edo Ocho","latitude":"15.55","longitude":"-91.699997","country":"GT"},{"geoLocId":"0003590930","geoLocName":"Quixal","latitude":"15.81667","longitude":"-91.716667","country":"GT"},{"geoLocId":"0003590964","geoLocName":"Departamento del Quich\u00e9","latitude":"15.5","longitude":"-90.916672","country":"GT"},{"geoLocId":"0003591412","geoLocName":"Petat\u00e1n","latitude":"15.61667","longitude":"-91.73333","country":"GT"},{"geoLocId":"0003592137","geoLocName":"Nueva Esperanza","latitude":"15.83556","longitude":"-91.760246","country":"GT"},{"geoLocId":"0003592216","geoLocName":"Municipio de Nent\u00f3n","latitude":"15.8007","longitude":"-91.754639","country":"GT"},{"geoLocId":"0003592750","geoLocName":"Municipio de Malacatancito","latitude":"15.21667","longitude":"-91.51667","country":"GT"},{"geoLocId":"0003592751","geoLocName":"Malacatancito","latitude":"15.21667","longitude":"-91.51667","country":"GT"},{"geoLocId":"0003592814","geoLocName":"Lupin\u00e1","latitude":"15.69407","longitude":"-91.791443","country":"GT"},{"geoLocId":"0003593527","geoLocName":"La Trinidad","latitude":"14.91667","longitude":"-91.883331","country":"GT"},{"geoLocId":"0003594419","geoLocName":"Municipio de La Libertad","latitude":"15.56327","longitude":"-91.910988","country":"GT"},{"geoLocId":"0003594423","geoLocName":"La Libertad","latitude":"15.51421","longitude":"-91.869438","country":"GT"},{"geoLocId":"0003594749","geoLocName":"Municipio de La Democracia","latitude":"15.56667","longitude":"-91.866669","country":"GT"},{"geoLocId":"0003594764","geoLocName":"La Cumbre","latitude":"15.45","longitude":"-91.800003","country":"GT"},{"geoLocId":"0003595005","geoLocName":"La Barranca","latitude":"15.34444","longitude":"-91.337219","country":"GT"},{"geoLocId":"0003595247","geoLocName":"Municipio de Jacaltenango","latitude":"15.75212","longitude":"-91.733162","country":"GT"},{"geoLocId":"0003595281","geoLocName":"Municipio de Ixtahuac\u00e1n","latitude":"15.41667","longitude":"-91.76667","country":"GT"},{"geoLocId":"0003595282","geoLocName":"Ixtahuac\u00e1n","latitude":"15.41667","longitude":"-91.76667","country":"GT"},{"geoLocId":"0003595392","geoLocName":"Ical","latitude":"15.45","longitude":"-91.73333","country":"GT"},{"geoLocId":"0003595415","geoLocName":"Departamento de Huehuetenango","latitude":"15.66667","longitude":"-91.583328"},{"geoLocId":"0003597543","geoLocName":"El Boquer\u00f3n","latitude":"15.50963","longitude":"-92.006401","country":"GT"},{"geoLocId":"0003597800","geoLocName":"Municipio de Cuilco","latitude":"15.4","longitude":"-91.966667","country":"GT"},{"geoLocId":"0003598040","geoLocName":"Municipio de Colotenango","latitude":"15.40718","longitude":"-91.714378","country":"GT"},{"geoLocId":"0003598762","geoLocName":"Finca Chanquejelb\u00e9","latitude":"15.86667","longitude":"-91.683327","country":"GT"},{"geoLocId":"0003599079","geoLocName":"Canquintic","latitude":"15.9","longitude":"-91.650002","country":"GT"},{"geoLocId":"0003599307","geoLocName":"Bujxub","latitude":"15.70495","longitude":"-91.81546","country":"GT"},{"geoLocId":"0003599327","geoLocName":"Buenos Aires","latitude":"15.35","longitude":"-91.449997","country":"GT"},{"geoLocId":"0003599602","geoLocName":"Departamento de Baja Verapaz","latitude":"15.08333","longitude":"-90.333328","country":"GT"},{"geoLocId":"0003599773","geoLocName":"Departamento de Alta Verapaz","latitude":"15.66667","longitude":"-90","country":"GT"}],"mjtheme":["Rural development","Social dev/gender/inclusion"],"ccsa_practice_code":"JOB","themecode":"57,78","combined_practice_name":"Jobs","mjthemecode":"10,7","mjtheme_namecode":[{"name":"Rural development","code":"10"},{"name":"Social dev/gender/inclusion","code":"7"}],"sector_namecode":[{"name":"Rural and Inter-Urban Roads and Highways","code":"TI"},{"name":"Sub-national government administration","code":"BH"}],"theme_namecode":[{"name":"Rural services and infrastructure","code":"78"},{"name":"Participation and civic engagement","code":"57"}],"source":"IBRD","combined_practice_code":"JOB","majorsector_percent":[{"Name":"Transportation","Percent":90},{"Name":"Public Administration, Law, and Justice","Percent":10}],"projectdocs":[{"DocTypeDesc":"Implementation Completion and Results Report (ICR),  Vol.1","DocType":"ICR","EntityID":"000442464_20140630150850","DocURL":"http://www-wds.worldbank.org/servlet/WDSServlet?pcont=details&eid=000442464_20140630150850","DocDate":"12-MAY-2014"},{"DocTypeDesc":"Implementation Status and Results Report (ISRR),  Vol.1","DocType":"ISRR","EntityID":"090224b081f4ce18_1_0","DocURL":"http://www-wds.worldbank.org/servlet/WDSServlet?pcont=details&eid=090224b081f4ce18_1_0","DocDate":"02-OCT-2013"},{"DocTypeDesc":"Implementation Status and Results Report (ISRR),  Vol.1","DocType":"ISRR","EntityID":"090224b081b8058d_1_0","DocURL":"http://www-wds.worldbank.org/servlet/WDSServlet?pcont=details&eid=090224b081b8058d_1_0","DocDate":"05-MAY-2013"},{"DocTypeDesc":"Implementation Status and Results Report (ISRR),  Vol.1","DocType":"ISRR","EntityID":"0000A8056_2012102214161629","DocURL":"http://www-wds.worldbank.org/servlet/WDSServlet?pcont=details&eid=0000A8056_2012102214161629","DocDate":"22-OCT-2012"},{"DocTypeDesc":"Aide Memoire (AM),  Vol.","DocType":"AM","EntityID":"000316166_2012102216120543","DocURL":"http://www-wds.worldbank.org/servlet/WDSServlet?pcont=details&eid=000316166_2012102216120543","DocDate":"05-OCT-2012"},{"DocTypeDesc":"Project Paper (PJPR),  Vol.2","DocType":"PJPR","EntityID":"000333037_20130411100811","DocURL":"http://www-wds.worldbank.org/servlet/WDSServlet?pcont=details&eid=000333037_20130411100811","DocDate":"26-SEP-2012"},{"DocTypeDesc":"Aide Memoire (AM),  Vol.1","DocType":"AM","EntityID":"000442464_20150216094927","DocURL":"http://www-wds.worldbank.org/servlet/WDSServlet?pcont=details&eid=000442464_20150216094927","DocDate":"20-SEP-2012"},{"DocTypeDesc":"Project Paper (PJPR),  Vol.1","DocType":"PJPR","EntityID":"000333037_20130411100120","DocURL":"http://www-wds.worldbank.org/servlet/WDSServlet?pcont=details&eid=000333037_20130411100120","DocDate":"14-SEP-2012"},{"DocTypeDesc":"Implementation Status and Results Report (ISRR),  Vol.1","DocType":"ISRR","EntityID":"0000A8056_2012061818403501","DocURL":"http://www-wds.worldbank.org/servlet/WDSServlet?pcont=details&eid=0000A8056_2012061818403501","DocDate":"18-JUN-2012"},{"DocTypeDesc":"Project Paper (PJPR),  Vol.2","DocType":"PJPR","EntityID":"000333038_20120111221125","DocURL":"http://www-wds.worldbank.org/servlet/WDSServlet?pcont=details&eid=000333038_20120111221125","DocDate":"20-DEC-2011"},{"DocTypeDesc":"Project Paper (PJPR),  Vol.1","DocType":"PJPR","EntityID":"000333038_20120111220859","DocURL":"http://www-wds.worldbank.org/servlet/WDSServlet?pcont=details&eid=000333038_20120111220859","DocDate":"15-DEC-2011"},{"DocTypeDesc":"Implementation Status and Results Report (ISRR),  Vol.1","DocType":"ISRR","EntityID":"0000A8056_2011121315354465","DocURL":"http://www-wds.worldbank.org/servlet/WDSServlet?pcont=details&eid=0000A8056_2011121315354465","DocDate":"13-DEC-2011"},{"DocTypeDesc":"Agreement (AGR),  Vol.","DocType":"AGR","EntityID":"000362596_2011122012303553","DocURL":"http://www-wds.worldbank.org/servlet/WDSServlet?pcont=details&eid=000362596_2011122012303553","DocDate":"07-NOV-2011"},{"DocTypeDesc":"Integrated Safeguards Data Sheet (ISDS),  Vol.1","DocType":"ISDS","EntityID":"000003596_20110712161646","DocURL":"http://www-wds.worldbank.org/servlet/WDSServlet?pcont=details&eid=000003596_20110712161646","DocDate":"07-JUL-2011"},{"DocTypeDesc":"Project Paper (PJPR),  Vol.2","DocType":"PJPR","EntityID":"000333037_20110629233509","DocURL":"http://www-wds.worldbank.org/servlet/WDSServlet?pcont=details&eid=000333037_20110629233509","DocDate":"29-JUN-2011"},{"DocTypeDesc":"Project Paper (PJPR),  Vol.1","DocType":"PJPR","EntityID":"000386194_20110810233401","DocURL":"http://www-wds.worldbank.org/servlet/WDSServlet?pcont=details&eid=000386194_20110810233401","DocDate":"22-JUN-2011"},{"DocTypeDesc":"Project Paper (PJPR),  Vol.1","DocType":"PJPR","EntityID":"000333037_20110629233715","DocURL":"http://www-wds.worldbank.org/servlet/WDSServlet?pcont=details&eid=000333037_20110629233715","DocDate":"22-JUN-2011"},{"DocTypeDesc":"Implementation Status and Results Report (ISRR),  Vol.1","DocType":"ISRR","EntityID":"014403825_2011061819440525","DocURL":"http://www-wds.worldbank.org/servlet/WDSServlet?pcont=details&eid=014403825_2011061819440525","DocDate":"18-JUN-2011"},{"DocTypeDesc":"Indigenous Peoples Plan (IP),  Vol.1","DocType":"IP","EntityID":"000333037_20110615012615","DocURL":"http://www-wds.worldbank.org/servlet/WDSServlet?pcont=details&eid=000333037_20110615012615","DocDate":"13-JUN-2011"},{"DocTypeDesc":"Resettlement Plan (RPL),  Vol.1","DocType":"RPL","EntityID":"000386194_20110525031658","DocURL":"http://www-wds.worldbank.org/servlet/WDSServlet?pcont=details&eid=000386194_20110525031658","DocDate":"26-APR-2011"},{"DocTypeDesc":"Procurement Plan (PROP),  Vol.1","DocType":"PROP","EntityID":"000386194_20111031004020","DocURL":"http://www-wds.worldbank.org/servlet/WDSServlet?pcont=details&eid=000386194_20111031004020","DocDate":"13-APR-2011"},{"DocTypeDesc":"Implementation Status and Results Report (ISRR),  Vol.1","DocType":"ISRR","EntityID":"0000A8056_2011022515045634","DocURL":"http://www-wds.worldbank.org/servlet/WDSServlet?pcont=details&eid=0000A8056_2011022515045634","DocDate":"25-FEB-2011"},{"DocTypeDesc":"Implementation Status and Results Report (ISRR),  Vol.1","DocType":"ISRR","EntityID":"0000A8056_2010111521423780","DocURL":"http://www-wds.worldbank.org/servlet/WDSServlet?pcont=details&eid=0000A8056_2010111521423780","DocDate":"15-NOV-2010"},{"DocTypeDesc":"Brief (BRI),  Vol.1","DocType":"BRI","EntityID":"000442464_20150105133810","DocURL":"http://www-wds.worldbank.org/servlet/WDSServlet?pcont=details&eid=000442464_20150105133810","DocDate":"01-SEP-2010"},{"DocTypeDesc":"Project Paper (PJPR),  Vol.2","DocType":"PJPR","EntityID":"000333037_20100326001911","DocURL":"http://www-wds.worldbank.org/servlet/WDSServlet?pcont=details&eid=000333037_20100326001911","DocDate":"11-MAR-2010"},{"DocTypeDesc":"Project Paper (PJPR),  Vol.1","DocType":"PJPR","EntityID":"000333037_20100326001310","DocURL":"http://www-wds.worldbank.org/servlet/WDSServlet?pcont=details&eid=000333037_20100326001310","DocDate":"11-MAR-2010"},{"DocTypeDesc":"Procurement Plan (PROP),  Vol.1","DocType":"PROP","EntityID":"000334955_20100409025803","DocURL":"http://www-wds.worldbank.org/servlet/WDSServlet?pcont=details&eid=000334955_20100409025803","DocDate":"01-JAN-2009"},{"DocTypeDesc":"Loan Agreement (),  Vol.","DocType":"000014464_2006052510200994","EntityID":"http://www-wds.worldbank.org/servlet/WDSServlet?pcont=details&eid=000014464_2006052510200994","DocURL":"27-OCT-2004"},{"DocTypeDesc":"Loan Agreement (LA),  Vol.","DocType":"LA","EntityID":"000014464_2006052510200994","DocURL":"http://www-wds.worldbank.org/servlet/WDSServlet?pcont=details&eid=000014464_2006052510200994","DocDate":"27-OCT-2004"},{"DocTypeDesc":"Resettlement Plan (RPL),  Vol.2","DocType":"RPL","EntityID":"000386194_20110525032806","DocURL":"http://www-wds.worldbank.org/servlet/WDSServlet?pcont=details&eid=000386194_20110525032806","DocDate":"01-OCT-2004"},{"DocTypeDesc":"Project Information Document (PID),  Vol.1","DocType":"PID","EntityID":"000160016_20040513133919","DocURL":"http://www-wds.worldbank.org/servlet/WDSServlet?pcont=details&eid=000160016_20040513133919","DocDate":"10-JAN-2003"},{"DocTypeDesc":"Project Information Document (PID),  Vol.1","DocType":"PID","EntityID":"000094946_01083104064943","DocURL":"http://www-wds.worldbank.org/servlet/WDSServlet?pcont=details&eid=000094946_01083104064943","DocDate":"10-JAN-2003"},{"DocTypeDesc":"Integrated Safeguards Data Sheet (ISDS),  Vol.1","DocType":"ISDS","EntityID":"000094946_02021404025361","DocURL":"http://www-wds.worldbank.org/servlet/WDSServlet?pcont=details&eid=000094946_02021404025361","DocDate":"07-JAN-2003"},{"DocTypeDesc":"Environmental Assessment (EA),  Vol.1","DocType":"EA","EntityID":"000094946_03011504074053","DocURL":"http://www-wds.worldbank.org/servlet/WDSServlet?pcont=details&eid=000094946_03011504074053","DocDate":"31-OCT-2002"}],"countryname":"Republic of Guatemala","ccsa_practice_name":"Jobs"}},"facets":{}}