{"rows":10,"os":"0","page":"1","total":"1","projects":{"P057578":{"id":"P057578","projectfinancialtype":"IBRD","regionname":"East Asia and Pacific","prodline":"GU","envassesmentcategorycode":"C","supplementprojectflg":"N","productlinetype":"L","projectstatusdisplay":"Closed","status":"Closed","project_name":"EGAT Investment Program Support Project","board_approval_month":"September","approvalfy":"1999","boardapprovaldate":"1998-09-15T00:00:00Z","lendprojectcost":"300,000,000","ibrdcommamt":"300,000,000","idacommamt":"0","totalamt":"300,000,000","grantamt":"0","url":"http://www.worldbank.org/projects/P057578/egat-investment-program-support-project?lang=en","countryshortname":"Thailand","teamleaderupi":"16430","prodlinetext":"Guarantees","keywords":{"cdata":"Accounting,adverse impacts,auditing,AUTHORITY,authorization,autonomy,Bank exposure,Bank guarantees,Bank loans,benchmark,Benefit Analysis,Bonds,bureaucracy,capital markets,coal,Commercial Borrowing,competitiveness,conditionality,consumers,Continuous monitoring,Cost Effectiveness,Cost Effectiveness Analysis,coupons,debt,debt financing,debt servicing,devaluation,development agencies,Economic Cooperation,economic impact,economic justification,economic situation,economics,electricity demand,electricity generation,employment,engineering,environmental impacts,Environmental Management,Environmental Policy,Environmental Protection,exchange rate,Executing agencies,execution,external auditors,feasibility studies,Financial Analysis,financial covenants,financial crisis,financial health,financial markets,financial resources,fiscal,fiscal deficit,fiscal year,forecasts,foreign exchange,fuels,GDP,Government agencies,government agency,Government strategy,guidelines,imports,institutional reforms,international financial markets,key performance indicators,legislation,market discipline,maturities,Ministry of Finance,operating costs,operating efficiency,operating expenses,power plants,present value,private sector financing,Privatization,privatization of state,Producers,Profitability,public funds,Public Sector,regulatory framework,Regulatory Regime,regulatory system,savings,State Enterprises,State-Owned Enterprises,subsidiaries,subsidiary,sustainable development,technical assistance,transparency,tra"},"project_abstract":{"cdata":"The main development objectives of the EGAT - Investment Program Support Project are to: a) help the Electricity Generating Authority of Thailand (EGAT) meet its essential investment commitments on generation and transmission projects whose implementation has already been under way; b) help EGAT not lose ground in accomplishing its organizational restructuring and corporatization, and implementing its privatization strategy and c) help improve the regulatory framework for the energy sector. The project includes four generation projects and four transmission systems as follows: a) Krabi Thermal Power Plant Unit 1; b) Ratchaburi Power Plant Project; c) Wang Noi Combined Cycle Power Station, Stage II; d) 500KV Transmission System for Independent Power Producers and Hong Sa Project in Laos; e) bulk power supply for greater Bangkok; f) EGAT-TNB Stage II interconnection; g) Transmission System Expansion Project no. 9; and h) restructuring, corporatization, and privatization of EGAT. The project will also reform the regulatory system for the energy sector including a) formulation of corporate policy for environmental and social management; and b) strengthening EGAT's environmental management function."},"country_namecode":"Kingdom of Thailand!$!TH","sector1":{"Name":"Power","Percent":100},"theme1":{"Name":"Debt management and fiscal sustainability","Percent":29},"theme2":{"Name":"Environmental policies and institutions","Percent":14},"theme3":{"Name":"State-owned enterprise restructuring and privatization","Percent":29},"theme4":{"Name":"Regulation and competition policy","Percent":28},"totalcommamt":"300,000,000","sector":[{"Name":"Power"}],"docty":"Implementation Completion and Results Report,Brief,Project Appraisal Document,Environmental Assessment,Environmental Assessment,Environmental Assessment,Environmental Assessment,Environmental Assessment,Environmental Assessment,Environmental Assessment,Environmental Assessment,Environmental Assessment,Environmental Assessment,Environmental Assessment,Environmental Assessment,Environmental Assessment,Environmental Assessment,Environmental Assessment,Environmental Assessment,Environmental Assessment,Environmental Assessment,Environmental Assessment,Environmental Assessment,Environmental Assessment,Environmental Assessment,Environmental Assessment,Environmental Assessment,Environmental Assessment,Environmental Assessment,Environmental Assessment,Environmental Assessment,Environmental Assessment,Project Information Document","countrycode":"TH","sectorcode":"LD","mjsector_namecode":[{"name":"Energy and mining","code":"LX"}],"locations":[{"geoLocId":"0001115052","geoLocName":"Lan Krabu","latitude":"16.6","longitude":"99.866669","country":"TH"},{"geoLocId":"0001150085","geoLocName":"Thung Song","latitude":"8.1645298","longitude":"99.680389","country":"TH"},{"geoLocId":"0001150514","geoLocName":"Changwat Surat Thani","latitude":"9.0010996","longitude":"99.039398","country":"TH"},{"geoLocId":"0001150515","geoLocName":"Surat Thani","latitude":"9.14011","longitude":"99.333107","country":"TH"},{"geoLocId":"0001150953","geoLocName":"Changwat Ratchaburi","latitude":"13.58333","longitude":"99.533333","country":"TH"},{"geoLocId":"0001150954","geoLocName":"Ratchaburi","latitude":"13.53671","longitude":"99.817123","country":"TH"},{"geoLocId":"0001151073","geoLocName":"Changwat Prachuap Khiri Khan","latitude":"12.21667","longitude":"99.75","country":"TH"},{"geoLocId":"0001151253","geoLocName":"Changwat Phuket","latitude":"7.9715199","longitude":"98.350983","country":"TH"},{"geoLocId":"0001151254","geoLocName":"Phuket","latitude":"7.8905902","longitude":"98.398102","country":"TH"},{"geoLocId":"0001151462","geoLocName":"Changwat Phangnga","latitude":"8.6333303","longitude":"98.416672","country":"TH"},{"geoLocId":"0001151464","geoLocName":"Phangnga","latitude":"8.4509096","longitude":"98.529846","country":"TH"},{"geoLocId":"0001151933","geoLocName":"Nakhon Si Thammarat","latitude":"8.4333296","longitude":"99.966667","country":"TH"},{"geoLocId":"0001152183","geoLocName":"Mae Taeng","latitude":"19.116671","longitude":"98.949997","country":"TH"},{"geoLocId":"0001152216","geoLocName":"Mae Mo","latitude":"18.27561","longitude":"99.650452","country":"TH"},{"geoLocId":"0001152472","geoLocName":"Changwat Lampang","latitude":"18.33333","longitude":"99.5","country":"TH"},{"geoLocId":"0001152473","geoLocName":"Lampang","latitude":"18.29232","longitude":"99.492767","country":"TH"},{"geoLocId":"0001153089","geoLocName":"Changwat Kamphaeng Phet","latitude":"16.25","longitude":"99.5","country":"TH"},{"geoLocId":"0001153090","geoLocName":"Kamphaeng Phet","latitude":"16.48344","longitude":"99.52153","country":"TH"},{"geoLocId":"0001153646","geoLocName":"Chom Bueng","latitude":"13.62","longitude":"99.59169","country":"TH"},{"geoLocId":"0001153670","geoLocName":"Changwat Chiang Mai","latitude":"18.75","longitude":"99","country":"TH"},{"geoLocId":"0001153671","geoLocName":"Chiang Mai","latitude":"18.79038","longitude":"98.98468","country":"TH"},{"geoLocId":"0001155139","geoLocName":"Ban Pong","latitude":"13.81629","longitude":"99.877388","country":"TH"},{"geoLocId":"0001157662","geoLocName":"Bang Saphan","latitude":"11.21259","longitude":"99.511673","country":"TH"},{"geoLocId":"0001598434","geoLocName":"Thepharak","latitude":"15.30868","longitude":"101.55045","country":"TH"},{"geoLocId":"0001602644","geoLocName":"Ban Khlong Ngae","latitude":"6.7930999","longitude":"100.44979","country":"TH"},{"geoLocId":"0001604869","geoLocName":"Changwat Yala","latitude":"6.3333302","longitude":"101.25","country":"TH"},{"geoLocId":"0001604870","geoLocName":"Yala","latitude":"6.5399499","longitude":"101.28128","country":"TH"},{"geoLocId":"0001605043","geoLocName":"Watthana Nakhon","latitude":"13.74462","longitude":"102.31863","country":"TH"},{"geoLocId":"0001605118","geoLocName":"Wang Noi","latitude":"14.22689","longitude":"100.7155","country":"TH"},{"geoLocId":"0001605239","geoLocName":"Udon Thani","latitude":"17.41567","longitude":"102.78589","country":"TH"},{"geoLocId":"0001605245","geoLocName":"Ubon Ratchathani","latitude":"15.23844","longitude":"104.84866","country":"TH"},{"geoLocId":"0001605469","geoLocName":"Tha Wung","latitude":"14.811","longitude":"100.50333","country":"TH"},{"geoLocId":"0001605483","geoLocName":"That Phanom","latitude":"16.936359","longitude":"104.71039","country":"TH"},{"geoLocId":"0001606029","geoLocName":"Changwat Surin","latitude":"14.83333","longitude":"103.75","country":"TH"},{"geoLocId":"0001606030","geoLocName":"Surin","latitude":"14.88181","longitude":"103.49364","country":"TH"},{"geoLocId":"0001606146","geoLocName":"Changwat Songkhla","latitude":"6.8333302","longitude":"100.66667","country":"TH"},{"geoLocId":"0001606238","geoLocName":"Changwat Sisaket","latitude":"14.83333","longitude":"104.33333","country":"TH"},{"geoLocId":"0001606417","geoLocName":"Changwat Sara Buri","latitude":"14.60838","longitude":"100.96822","country":"TH"},{"geoLocId":"0001606418","geoLocName":"Saraburi","latitude":"14.53333","longitude":"100.91667","country":"TH"},{"geoLocId":"0001606543","geoLocName":"Sangkha","latitude":"14.6362","longitude":"103.85278","country":"TH"},{"geoLocId":"0001606588","geoLocName":"Samut Sakhon","latitude":"13.54753","longitude":"100.27362","country":"TH"},{"geoLocId":"0001606638","geoLocName":"Sam Phran","latitude":"13.72698","longitude":"100.21526","country":"TH"},{"geoLocId":"0001606837","geoLocName":"Sai Noi","latitude":"13.97915","longitude":"100.31209","country":"TH"},{"geoLocId":"0001607000","geoLocName":"Changwat Roi Et","latitude":"15.75","longitude":"103.75","country":"TH"},{"geoLocId":"0001607001","geoLocName":"Roi Et","latitude":"16.0567","longitude":"103.65309","country":"TH"},{"geoLocId":"0001607016","geoLocName":"Changwat Rayong","latitude":"12.83333","longitude":"101.43333","country":"TH"},{"geoLocId":"0001607017","geoLocName":"Rayong","latitude":"12.68095","longitude":"101.25798","country":"TH"},{"geoLocId":"0001607280","geoLocName":"Prachin Buri","latitude":"14.04992","longitude":"101.36864","country":"TH"},{"geoLocId":"0001607530","geoLocName":"Changwat Phra Nakhon Si Ayutthaya","latitude":"14.28333","longitude":"100.5","country":"TH"},{"geoLocId":"0001607763","geoLocName":"Phayakkhaphum Phisai","latitude":"15.51631","longitude":"103.19367","country":"TH"},{"geoLocId":"0001607982","geoLocName":"Changwat Pathum Thani","latitude":"14.04554","longitude":"100.63955","country":"TH"},{"geoLocId":"0001608132","geoLocName":"Changwat Nonthaburi","latitude":"13.90433","longitude":"100.40335","country":"TH"},{"geoLocId":"0001608269","geoLocName":"Nong Bua Lamphu","latitude":"17.20406","longitude":"102.44068","country":"TH"},{"geoLocId":"0001608408","geoLocName":"Changwat Narathiwat","latitude":"6.2033601","longitude":"101.72005","country":"TH"},{"geoLocId":"0001608409","geoLocName":"Narathiwat","latitude":"6.4263902","longitude":"101.82308","country":"TH"},{"geoLocId":"0001608525","geoLocName":"Changwat Nakhon Si Thammarat","latitude":"8.3910198","longitude":"99.822029","country":"TH"},{"geoLocId":"0001608530","geoLocName":"Changwat Nakhon Phanom","latitude":"17.486111","longitude":"104.48333","country":"TH"},{"geoLocId":"0001608531","geoLocName":"Nakhon Phanom","latitude":"17.41081","longitude":"104.77856","country":"TH"},{"geoLocId":"0001608533","geoLocName":"Changwat Nakhon Pathom","latitude":"13.98333","longitude":"100.08333","country":"TH"},{"geoLocId":"0001608545","geoLocName":"Nakhon Chai Si","latitude":"13.80126","longitude":"100.18451","country":"TH"},{"geoLocId":"0001608595","geoLocName":"Changwat Mukdahan","latitude":"16.58333","longitude":"104.5","country":"TH"},{"geoLocId":"0001608597","geoLocName":"Mukdahan","latitude":"16.545309","longitude":"104.72351","country":"TH"},{"geoLocId":"0001608899","geoLocName":"Changwat Maha Sarakham","latitude":"16.005711","longitude":"103.17233","country":"TH"},{"geoLocId":"0001609031","geoLocName":"Changwat Lop Buri","latitude":"15.12191","longitude":"100.88605","country":"TH"},{"geoLocId":"0001609350","geoLocName":"Bangkok","latitude":"13.75398","longitude":"100.50144","country":"TH"},{"geoLocId":"0001610227","geoLocName":"Kantharalak","latitude":"14.64056","longitude":"104.64992","country":"TH"},{"geoLocId":"0001610780","geoLocName":"Hat Yai","latitude":"7.0083599","longitude":"100.47668","country":"TH"},{"geoLocId":"0001611406","geoLocName":"Changwat Chaiyaphum","latitude":"16.01804","longitude":"101.81249","country":"TH"},{"geoLocId":"0001611407","geoLocName":"Chaiyaphum","latitude":"15.81047","longitude":"102.02881","country":"TH"},{"geoLocId":"0001613769","geoLocName":"Ban Rangsit","latitude":"14.02775","longitude":"100.75603","country":"TH"},{"geoLocId":"0001619347","geoLocName":"Bang Phli","latitude":"13.60678","longitude":"100.71201","country":"TH"},{"geoLocId":"0001619460","geoLocName":"Bangkok Noi","latitude":"13.76266","longitude":"100.47798","country":"TH"},{"geoLocId":"0001620989","geoLocName":"Bamnet Narong","latitude":"15.50189","longitude":"101.68982","country":"TH"},{"geoLocId":"0001906686","geoLocName":"Changwat Udon Thani","latitude":"17.33333","longitude":"102.83333","country":"TH"},{"geoLocId":"0001906687","geoLocName":"Changwat Prachin Buri","latitude":"14.08333","longitude":"101.66667","country":"TH"},{"geoLocId":"0001906688","geoLocName":"Changwat Ubon Ratchathani","latitude":"15.16667","longitude":"105.16667","country":"TH"},{"geoLocId":"0001906690","geoLocName":"Changwat Nong Bua Lamphu","latitude":"17.25","longitude":"102.25","country":"TH"},{"geoLocId":"0001906691","geoLocName":"Changwat Sa Kaeo","latitude":"13.75","longitude":"102.33333","country":"TH"},{"geoLocId":"0007026837","geoLocName":"Lat Phrao","latitude":"13.80349","longitude":"100.60749","country":"TH"},{"geoLocId":"0007910414","geoLocName":"Tambon Khlong Khanan","latitude":"8.0049496","longitude":"99.012802","country":"TH"}],"mjtheme":["Economic management","Environment and natural resources management","Financial and private sector development","Financial and private sector development"],"themecode":"40,43,82,21","mjthemecode":"1,11,4,4","mjtheme_namecode":[{"name":"Economic management","code":"1"},{"name":"Environment and natural resources management","code":"11"},{"name":"Financial and private sector development","code":"4"},{"name":"Financial and private sector development","code":"4"}],"sector_namecode":[{"name":"Power","code":"LD"}],"theme_namecode":[{"name":"Debt management and fiscal sustainability","code":"21"},{"name":"Environmental policies and institutions","code":"82"},{"name":"State-owned enterprise restructuring and privatization","code":"43"},{"name":"Regulation and competition policy","code":"40"}],"source":"IBRD","majorsector_percent":[{"Name":"Energy and mining","Percent":100}],"projectdocs":[{"DocTypeDesc":"Implementation Completion and Results Report (ICR),  Vol.1","DocType":"ICR","EntityID":"000090341_20041028141249","DocURL":"http://www-wds.worldbank.org/servlet/WDSServlet?pcont=details&eid=000090341_20041028141249","DocDate":"16-SEP-2004"},{"DocTypeDesc":"Brief (BRI),  Vol.1","DocType":"BRI","EntityID":"000160016_20060421115642","DocURL":"http://www-wds.worldbank.org/servlet/WDSServlet?pcont=details&eid=000160016_20060421115642","DocDate":"01-JAN-1999"},{"DocTypeDesc":"Project Appraisal Document (PAD),  Vol.1","DocType":"PAD","EntityID":"000009265_3980929145931","DocURL":"http://www-wds.worldbank.org/servlet/WDSServlet?pcont=details&eid=000009265_3980929145931","DocDate":"12-AUG-1998"},{"DocTypeDesc":"Environmental Assessment (EA),  Vol.5","DocType":"EA","EntityID":"000009265_3980901160916","DocURL":"http://www-wds.worldbank.org/servlet/WDSServlet?pcont=details&eid=000009265_3980901160916","DocDate":"02-JUL-1998"},{"DocTypeDesc":"Environmental Assessment (EA),  Vol.6","DocType":"EA","EntityID":"000009265_3980901160919","DocURL":"http://www-wds.worldbank.org/servlet/WDSServlet?pcont=details&eid=000009265_3980901160919","DocDate":"02-JUL-1998"},{"DocTypeDesc":"Environmental Assessment (EA),  Vol.7","DocType":"EA","EntityID":"000009265_3980901160924","DocURL":"http://www-wds.worldbank.org/servlet/WDSServlet?pcont=details&eid=000009265_3980901160924","DocDate":"02-JUL-1998"},{"DocTypeDesc":"Environmental Assessment (EA),  Vol.8","DocType":"EA","EntityID":"000009265_3980901160927","DocURL":"http://www-wds.worldbank.org/servlet/WDSServlet?pcont=details&eid=000009265_3980901160927","DocDate":"02-JUL-1998"},{"DocTypeDesc":"Environmental Assessment (EA),  Vol.9","DocType":"EA","EntityID":"000009265_3980901160928","DocURL":"http://www-wds.worldbank.org/servlet/WDSServlet?pcont=details&eid=000009265_3980901160928","DocDate":"02-JUL-1998"},{"DocTypeDesc":"Environmental Assessment (EA),  Vol.10","DocType":"EA","EntityID":"000009265_3980901160931","DocURL":"http://www-wds.worldbank.org/servlet/WDSServlet?pcont=details&eid=000009265_3980901160931","DocDate":"02-JUL-1998"},{"DocTypeDesc":"Environmental Assessment (EA),  Vol.11","DocType":"EA","EntityID":"000009265_3980901160935","DocURL":"http://www-wds.worldbank.org/servlet/WDSServlet?pcont=details&eid=000009265_3980901160935","DocDate":"02-JUL-1998"},{"DocTypeDesc":"Environmental Assessment (EA),  Vol.12","DocType":"EA","EntityID":"000009265_3980901160936","DocURL":"http://www-wds.worldbank.org/servlet/WDSServlet?pcont=details&eid=000009265_3980901160936","DocDate":"02-JUL-1998"},{"DocTypeDesc":"Environmental Assessment (EA),  Vol.13","DocType":"EA","EntityID":"000009265_3980901160939","DocURL":"http://www-wds.worldbank.org/servlet/WDSServlet?pcont=details&eid=000009265_3980901160939","DocDate":"02-JUL-1998"},{"DocTypeDesc":"Environmental Assessment (EA),  Vol.14","DocType":"EA","EntityID":"000009265_3980901160946","DocURL":"http://www-wds.worldbank.org/servlet/WDSServlet?pcont=details&eid=000009265_3980901160946","DocDate":"02-JUL-1998"},{"DocTypeDesc":"Environmental Assessment (EA),  Vol.15","DocType":"EA","EntityID":"000009265_3980901160948","DocURL":"http://www-wds.worldbank.org/servlet/WDSServlet?pcont=details&eid=000009265_3980901160948","DocDate":"02-JUL-1998"},{"DocTypeDesc":"Environmental Assessment (EA),  Vol.16","DocType":"EA","EntityID":"000009265_3980901160952","DocURL":"http://www-wds.worldbank.org/servlet/WDSServlet?pcont=details&eid=000009265_3980901160952","DocDate":"02-JUL-1998"},{"DocTypeDesc":"Environmental Assessment (EA),  Vol.17","DocType":"EA","EntityID":"000009265_3980901160954","DocURL":"http://www-wds.worldbank.org/servlet/WDSServlet?pcont=details&eid=000009265_3980901160954","DocDate":"02-JUL-1998"},{"DocTypeDesc":"Environmental Assessment (EA),  Vol.18","DocType":"EA","EntityID":"000009265_3980901160956","DocURL":"http://www-wds.worldbank.org/servlet/WDSServlet?pcont=details&eid=000009265_3980901160956","DocDate":"02-JUL-1998"},{"DocTypeDesc":"Environmental Assessment (EA),  Vol.19","DocType":"EA","EntityID":"000009265_3980901160958","DocURL":"http://www-wds.worldbank.org/servlet/WDSServlet?pcont=details&eid=000009265_3980901160958","DocDate":"02-JUL-1998"},{"DocTypeDesc":"Environmental Assessment (EA),  Vol.20","DocType":"EA","EntityID":"000009265_3980901161007","DocURL":"http://www-wds.worldbank.org/servlet/WDSServlet?pcont=details&eid=000009265_3980901161007","DocDate":"02-JUL-1998"},{"DocTypeDesc":"Environmental Assessment (EA),  Vol.21","DocType":"EA","EntityID":"000009265_3980901161012","DocURL":"http://www-wds.worldbank.org/servlet/WDSServlet?pcont=details&eid=000009265_3980901161012","DocDate":"02-JUL-1998"},{"DocTypeDesc":"Environmental Assessment (EA),  Vol.22","DocType":"EA","EntityID":"000009265_3980901161014","DocURL":"http://www-wds.worldbank.org/servlet/WDSServlet?pcont=details&eid=000009265_3980901161014","DocDate":"02-JUL-1998"},{"DocTypeDesc":"Environmental Assessment (EA),  Vol.23","DocType":"EA","EntityID":"000009265_3980901161015","DocURL":"http://www-wds.worldbank.org/servlet/WDSServlet?pcont=details&eid=000009265_3980901161015","DocDate":"02-JUL-1998"},{"DocTypeDesc":"Environmental Assessment (EA),  Vol.24","DocType":"EA","EntityID":"000009265_3980901161017","DocURL":"http://www-wds.worldbank.org/servlet/WDSServlet?pcont=details&eid=000009265_3980901161017","DocDate":"02-JUL-1998"},{"DocTypeDesc":"Environmental Assessment (EA),  Vol.25","DocType":"EA","EntityID":"000009265_3980901161019","DocURL":"http://www-wds.worldbank.org/servlet/WDSServlet?pcont=details&eid=000009265_3980901161019","DocDate":"02-JUL-1998"},{"DocTypeDesc":"Environmental Assessment (EA),  Vol.26","DocType":"EA","EntityID":"000009265_3980901161021","DocURL":"http://www-wds.worldbank.org/servlet/WDSServlet?pcont=details&eid=000009265_3980901161021","DocDate":"02-JUL-1998"},{"DocTypeDesc":"Environmental Assessment (EA),  Vol.27","DocType":"EA","EntityID":"000009265_3980901161022","DocURL":"http://www-wds.worldbank.org/servlet/WDSServlet?pcont=details&eid=000009265_3980901161022","DocDate":"02-JUL-1998"},{"DocTypeDesc":"Environmental Assessment (EA),  Vol.28","DocType":"EA","EntityID":"000009265_3980901161024","DocURL":"http://www-wds.worldbank.org/servlet/WDSServlet?pcont=details&eid=000009265_3980901161024","DocDate":"02-JUL-1998"},{"DocTypeDesc":"Environmental Assessment (EA),  Vol.29","DocType":"EA","EntityID":"000009265_3980901161027","DocURL":"http://www-wds.worldbank.org/servlet/WDSServlet?pcont=details&eid=000009265_3980901161027","DocDate":"02-JUL-1998"},{"DocTypeDesc":"Environmental Assessment (EA),  Vol.4","DocType":"EA","EntityID":"000009265_3980901160910","DocURL":"http://www-wds.worldbank.org/servlet/WDSServlet?pcont=details&eid=000009265_3980901160910","DocDate":"02-JUL-1998"},{"DocTypeDesc":"Environmental Assessment (EA),  Vol.3","DocType":"EA","EntityID":"000009265_3980901160906","DocURL":"http://www-wds.worldbank.org/servlet/WDSServlet?pcont=details&eid=000009265_3980901160906","DocDate":"02-JUL-1998"},{"DocTypeDesc":"Environmental Assessment (EA),  Vol.2","DocType":"EA","EntityID":"000009265_3980901160904","DocURL":"http://www-wds.worldbank.org/servlet/WDSServlet?pcont=details&eid=000009265_3980901160904","DocDate":"02-JUL-1998"},{"DocTypeDesc":"Environmental Assessment (EA),  Vol.1","DocType":"EA","EntityID":"000009265_3980901160903","DocURL":"http://www-wds.worldbank.org/servlet/WDSServlet?pcont=details&eid=000009265_3980901160903","DocDate":"02-JUL-1998"},{"DocTypeDesc":"Project Information Document (PID),  Vol.1","DocType":"PID","EntityID":"000009265_3980929102046","DocURL":"http://www-wds.worldbank.org/servlet/WDSServlet?pcont=details&eid=000009265_3980929102046","DocDate":"30-JUN-1998"}],"countryname":"Kingdom of Thailand"}},"facets":{}}