{"rows":10,"os":"0","page":"1","total":"1","projects":{"P059663":{"id":"P059663","projectfinancialtype":"IDA","regionname":"East Asia and Pacific","prodline":"PE","lendinginstr":"Specific Investment Loan","lendinginstrtype":"IN","envassesmentcategorycode":"B","supplementprojectflg":"N","productlinetype":"L","projectstatusdisplay":"Closed","status":"Closed","project_name":"Road Network Improvement Project","board_approval_month":"December","approvalfy":"2004","boardapprovaldate":"2003-12-18T00:00:00Z","closingdate":"2012-03-31T00:00:00Z","lendprojectcost":"304,990,000","ibrdcommamt":"0","idacommamt":"225,260,000","totalamt":"225,260,000","grantamt":"0","borrower":"SCIALIST","impagency":"IIST","url":"http://www.worldbank.org/projects/P059663/road-network-improvement-project?lang=en","countryshortname":"Vietnam","teamleaderupi":"208343","prodlinetext":"IBRD/IDA","keywords":{"cdata":"accessibility,account,accountability,ADB,asphaltic concrete,asset management,auditing,audits,bridge,bridges,budgeting,business associations,business plans,Carriageway,contractors,Cost Benefit,Cost Benefit Analysis,cost estimates,cost recovery,debt,employment,Expenditure,expenditures,financial audits,Financial Management,FISCAL YEAR,Framework,fuel,fuel taxes,haulage,health services,highway design,highway projects,highways,Impact Assessment,international standards,Key performance indicators,land acquisition,legal framework,mobility,motorcycles,National Roads,periodic maintenance,private sector,Procurement,provincial roads,recurrent expenditures,regulatory framework,reporting,road finance,road financing,road infrastructure,road investment,road maintenance,road repair,road safety,road system,road transport,road users,Roads,roughness,routes,routine maintenance,selling,surfacing,technical assistance,tolls,traffic,traffic volumes,Transport,transport projects,Transportation,travel times,trucking,trunk roads,user charges,vehicle operating costs,vehicles"},"project_abstract":{"cdata":"The development objective of the Road Network Improvement Project is to improve the national road network through increased preventive maintenance and selective upgrading, and an increase in the level of resources available for road maintenance and capacity for planning, budgeting, and monitoring of road assets. The project has the following three components: Component A) Network Preservation Program - Periodic Maintenance on National Roads. The Network Preservation Program (NPP) will support the financing of the periodic repair of about 1,100 km of national roads under three annual periodic maintenance works programs to be executed in conjunction with Vietnam Road Administration (VRA's) medium and heavy repairs program. Project Management and Advisory Services. The NPP will include management and advisory services, including social and environmental monitoring and technical assistance, and design and construction supervision for civil works, and equipment. Pilot Program of Long -Term Performance Based Contracts. The NPP includes a pilot program for the use of performance-oriented maintenance contracts, to be designed during the first year of project implementation on the basis of international experience tailored to Vietnamese conditions. Component B) Network Improvement Program - Improvements on National Roads. The Network Improvement Program (NIP) will support the financing of three annual works programs consisting of the rehabilitation and widening of about 600 km of national roads in the north of Vietnam, including short bridges (less than 25 m long). Project Management and Advisory Services. The NIP will include management and advisory services, including social and environmental monitoring, and design and construction supervision for civil works, and equipment. Cost estimates include land acquisition and resettlement to be fully financed from counterpart resour"},"country_namecode":"Socialist Republic of Vietnam!$!VN","projectinfo":"<![CDATA[<Project><LangCode>ES</LangCode><ProjectAbstract>La implementaci\u00f3n del proyecto de mejora de la red de carreteras tendr\u00e1 cierta adversidad medioambiental, debido a las perturbaciones de la construcci\u00f3n, adem\u00e1s del reasentamiento necesario de las personas afectadas. Esta evaluaci\u00f3n medioambiental establece el proceso y las disposiciones institucionales para la gesti\u00f3n ambiental previa y durante la implementaci\u00f3n y el funcionamiento del proyecto. Los principales problemas medioambientales identifican la erosi\u00f3n topogr\u00e1fica y del suelo debido a terraplenes de la carretera, excavaciones de \u00e1reas de pr\u00e9stamo, explotaciones de canteras y cambios en formaciones de piedra caliza (karst). Adem\u00e1s, los puentes y otras estructuras podr\u00edan ser propicios para sucesos s\u00edsmicos en el \u00e1rea del proyecto, al mismo tiempo que se producir\u00e1n potencialmente cambios hidrol\u00f3gicos debido a las alteraciones de la construcci\u00f3n, lo que a su vez provoca la contaminaci\u00f3n de pantanos, aguas superficiales y subterr\u00e1neas. Se recomienda la mitigaci\u00f3n a trav\u00e9s de dise\u00f1os de ingenier\u00eda apropiados y cl\u00e1usulas preventivas en las especificaciones del contrato referentes a terraplenes de carreteras alterados, \u00e1reas de pr\u00e9stamo y explotaciones de canteras, incluidos tambi\u00e9n los est\u00e1ndares de ingenier\u00eda de puentes y estructuras, teniendo en cuenta las caracter\u00edsticas s\u00edsmicas del \u00e1rea. Se deben instalar sistemas de alcantarillado y estructuras adecuados que tengan cabida para los niveles de inundaci\u00f3n de un per\u00edodo de cincuenta a\u00f1os, mientras que las laderas descendentes se deben estabilizar con cemento o gaviones de roca, incluidos muros de contenci\u00f3n para contener la erosi\u00f3n. En concreto, con respecto al asfalto y las plantas de mezcla asf\u00e1ltica en caliente, se deben localizar como m\u00ednimo a 500 metros de distancia de los pueblos, colegios o instalaciones sanitarias, con el requisito de instalaci\u00f3n y cumplimiento de los controles de emisi\u00f3n. Otras medidas incluyen el uso de peque\u00f1as cargas explosivas; superficies de las obras de construcci\u00f3n con aspersi\u00f3n de agua y provisi\u00f3n de medidas de seguridad del tr\u00e1fico. El informe tambi\u00e9n aborda los impactos sociales con relaci\u00f3n a los problemas de reasentamiento.</ProjectAbstract></Project><Project><LangCode>FR</LangCode><ProjectAbstract>Le Petit livre vert 2004 est une \u00e9dition de poche des Indicateurs du d\u00e9veloppement dans le monde qui porte sur plus de 600 indicateurs et couvre une p\u00e9riode de 40 ans. Les 207 pages par pays que comprend le Petit livre vert pr\u00e9sentent les donn\u00e9es les plus r\u00e9centes disponibles sur les pays membres de la Banque et d'autres pays de plus de 30 000 habitants, et les 14 pages synoptiques portent sur des totaux r\u00e9gionaux ou par groupe de revenu. Les donn\u00e9es de ce guide sont pour les ann\u00e9es 1990, 2001 et 2002 ou sont les donn\u00e9es les plus r\u00e9centes disponibles, sauf indication contraire dans le glossaire. 1) les taux de croissance sont exprim\u00e9s en changement proportionnel par rapport \u00e0 l\u2019ann\u00e9e pr\u00e9c\u00e9dente, sauf indication contraire ; 2) les profils de groupes comprennent les donn\u00e9es des pays \u00e0 faible revenu et \u00e0 revenu interm\u00e9diaire uniquement ; 3) les chiffres en italiques sont des donn\u00e9es pour des ann\u00e9es ou des p\u00e9riodes autres que celles sp\u00e9cifi\u00e9es. Comme les Indicateurs du d\u00e9veloppement dans le monde de 2004, les termes employ\u00e9s dans cette \u00e9dition du Petit livre vert sont ceux du Syst\u00e8me de comptabilit\u00e9 nationale (SCN) de 1993. Ainsi, le terme produit int\u00e9rieur brut (PIB) a \u00e9t\u00e9 remplac\u00e9 par revenu national brut (RNB). Depuis 2003, la s\u00e9lection des indicateurs de ces pages a \u00e9t\u00e9 mise \u00e0 jour afin d\u2019inclure certains des indicateurs utilis\u00e9s pour suivre l\u2019\u00e9volution des progr\u00e8s vers l\u2019atteinte des objectifs de d\u00e9veloppement pour le Mill\u00e9naire.</ProjectAbstract></Project>]]>","sector1":{"Name":"Rural and Inter-Urban Roads and Highways","Percent":93},"sector2":{"Name":"Central government administration","Percent":7},"theme1":{"Name":"Infrastructure services for private sector development","Percent":33},"theme2":{"Name":"Administrative and civil service reform","Percent":33},"theme3":{"Name":"Public expenditure, financial management and procurement","Percent":17},"theme4":{"Name":"Micro, Small and Medium Enterprise support","Percent":17},"totalcommamt":"225,260,000","sector":[{"Name":"Rural and Inter-Urban Roads and Highways"},{"Name":"Central government administration"}],"docty":"Implementation Completion and Results Report,Implementation Status and Results Report,Agreement,Implementation Status and Results Report,Procurement Plan,Resettlement Plan,Resettlement Plan,Resettlement Plan,Resettlement Plan,Resettlement Plan,Resettlement Plan,Resettlement Plan,Indigenous Peoples Plan,Credit Agreement,Credit Agreement,Project Information Document,Project Appraisal Document,Social Assessment,Resettlement Plan,Resettlement Plan,Resettlement Plan,Indigenous Peoples Plan,Environmental Assessment,Environmental Assessment,Indigenous Peoples Plan,Integrated Safeguards Data Sheet,Grant or Trust Fund Agreement,Resettlement Plan","countrycode":"VN","sectorcode":"BC,TI","mjsector_namecode":[{"name":"Transportation","code":"TX"},{"name":"Public Administration, Law, and Justice","code":"BX"}],"locations":[{"geoLocId":"0001559969","geoLocName":"Tinh Nghe An","latitude":"19.25","longitude":"104.91667","country":"VN"},{"geoLocId":"0001559970","geoLocName":"Tinh Ninh Binh","latitude":"20.23333","longitude":"105.9","country":"VN"},{"geoLocId":"0001559971","geoLocName":"Tinh Ninh Thuan","latitude":"11.75","longitude":"108.83333","country":"VN"},{"geoLocId":"0001564945","geoLocName":"Thuong Dinh","latitude":"21.5","longitude":"105.91667","country":"VN"},{"geoLocId":"0001565598","geoLocName":"Tho Ngoc","latitude":"19.73333","longitude":"105.7","country":"VN"},{"geoLocId":"0001566165","geoLocName":"Tinh Thanh Hoa","latitude":"20.066669","longitude":"105.33333","country":"VN"},{"geoLocId":"0001566338","geoLocName":"Tinh Thai Binh","latitude":"20.5","longitude":"106.36667","country":"VN"},{"geoLocId":"0001566406","geoLocName":"Thach Khoi","latitude":"20.91667","longitude":"106.31667","country":"VN"},{"geoLocId":"0001567643","geoLocName":"Tinh Son La","latitude":"21.16667","longitude":"104","country":"VN"},{"geoLocId":"0001568839","geoLocName":"Tinh Quang Binh","latitude":"17.5","longitude":"106.33333","country":"VN"},{"geoLocId":"0001570887","geoLocName":"Pho Huong","latitude":"21.533331","longitude":"105.86667","country":"VN"},{"geoLocId":"0001572264","geoLocName":"Nguyen Xa","latitude":"20.549999","longitude":"106.33333","country":"VN"},{"geoLocId":"0001572395","geoLocName":"Ngoc Son","latitude":"21.450001","longitude":"105.93333","country":"VN"},{"geoLocId":"0001573517","geoLocName":"Nam Dinh","latitude":"20.433889","longitude":"106.17729","country":"VN"},{"geoLocId":"0001574505","geoLocName":"Mong Duong","latitude":"21.066669","longitude":"107.35","country":"VN"},{"geoLocId":"0001574645","geoLocName":"Minh Chau","latitude":"20.383329","longitude":"106.58333","country":"VN"},{"geoLocId":"0001577954","geoLocName":"Tinh Lai Chau","latitude":"22.283331","longitude":"103.25","country":"VN"},{"geoLocId":"0001579634","geoLocName":"Tinh Khanh Hoa","latitude":"12.33333","longitude":"109","country":"VN"},{"geoLocId":"0001580114","geoLocName":"Huong Mai","latitude":"21.299999","longitude":"106.03333","country":"VN"},{"geoLocId":"0001580218","geoLocName":"Hung Son","latitude":"21.633329","longitude":"105.65","country":"VN"},{"geoLocId":"0001580700","geoLocName":"Tinh Ha Tinh","latitude":"18.33333","longitude":"105.75","country":"VN"},{"geoLocId":"0001581129","geoLocName":"Thu Do Ha Noi","latitude":"21","longitude":"105.75","country":"VN"},{"geoLocId":"0001582177","geoLocName":"Duc Thang","latitude":"21.35639","longitude":"105.97583","country":"VN"},{"geoLocId":"0001582720","geoLocName":"Tinh Dong Nai","latitude":"11","longitude":"107.16667","country":"VN"},{"geoLocId":"0001582851","geoLocName":"Dong Kinh","latitude":"20.48333","longitude":"106.5","country":"VN"},{"geoLocId":"0001582897","geoLocName":"Dong Hoang","latitude":"20.41667","longitude":"106.6","country":"VN"},{"geoLocId":"0001583490","geoLocName":"Diem Thuy","latitude":"21.450001","longitude":"105.91667","country":"VN"},{"geoLocId":"0001583509","geoLocName":"Di Che","latitude":"20.683331","longitude":"106.11667","country":"VN"},{"geoLocId":"0001584169","geoLocName":"Tinh Dac Lak","latitude":"12.75","longitude":"108.25","country":"VN"},{"geoLocId":"0001584594","geoLocName":"Cua Ong","latitude":"21.033331","longitude":"107.36667","country":"VN"},{"geoLocId":"0001905052","geoLocName":"Huyen Nghi Loc","latitude":"18.83131","longitude":"105.62411","country":"VN"},{"geoLocId":"0001905053","geoLocName":"Thi Xa Cua Lo","latitude":"18.78285","longitude":"105.72612","country":"VN"},{"geoLocId":"0001905054","geoLocName":"Huyen Dien Chau","latitude":"18.98892","longitude":"105.57625","country":"VN"},{"geoLocId":"0001905061","geoLocName":"Huyen Quynh Luu","latitude":"19.227171","longitude":"105.64354","country":"VN"},{"geoLocId":"0001905062","geoLocName":"Huyen Nghia Dan","latitude":"19.382339","longitude":"105.44072","country":"VN"},{"geoLocId":"0001905063","geoLocName":"Huyen Quy Hop","latitude":"19.32514","longitude":"105.16009","country":"VN"},{"geoLocId":"0001905070","geoLocName":"Huyen Dong Hung","latitude":"20.54388","longitude":"106.3409","country":"VN"},{"geoLocId":"0001905109","geoLocName":"Thi Xa Cam Pha","latitude":"21.082649","longitude":"107.3027","country":"VN"},{"geoLocId":"0001905229","geoLocName":"Huyen Trieu Son","latitude":"19.825781","longitude":"105.58293","country":"VN"},{"geoLocId":"0001905230","geoLocName":"Huyen Tho Xuan","latitude":"19.931141","longitude":"105.48284","country":"VN"},{"geoLocId":"0001905419","geoLocName":"Tinh Bac Giang","latitude":"21.33333","longitude":"106.43333","country":"VN"},{"geoLocId":"0001905434","geoLocName":"Huyen VIet Yen","latitude":"21.274929","longitude":"106.08998","country":"VN"},{"geoLocId":"0001905444","geoLocName":"Huyen Hiep Hoa","latitude":"21.33333","longitude":"105.96667","country":"VN"},{"geoLocId":"0001905497","geoLocName":"Tinh Thai Nguyen","latitude":"21.66667","longitude":"105.83333","country":"VN"},{"geoLocId":"0001905499","geoLocName":"Huyen Phu Binh","latitude":"21.49024","longitude":"105.9634","country":"VN"},{"geoLocId":"0001905626","geoLocName":"Tinh Nam Dinh","latitude":"20.25","longitude":"106.25","country":"VN"},{"geoLocId":"0001905627","geoLocName":"Thanh pho Nam Dinh","latitude":"20.429741","longitude":"106.17191","country":"VN"},{"geoLocId":"0001905631","geoLocName":"Huyen Nam Truc","latitude":"20.341061","longitude":"106.20821","country":"VN"},{"geoLocId":"0001905632","geoLocName":"Huyen Truc Ninh","latitude":"20.256901","longitude":"106.24582","country":"VN"},{"geoLocId":"0001905633","geoLocName":"Huyen Xuan Truong","latitude":"20.309139","longitude":"106.36105","country":"VN"},{"geoLocId":"0001905635","geoLocName":"Huyen Hai Hau","latitude":"20.15057","longitude":"106.27161","country":"VN"},{"geoLocId":"0001905686","geoLocName":"Tinh Hai Duong","latitude":"20.91667","longitude":"106.33333","country":"VN"},{"geoLocId":"0001905690","geoLocName":"Huyen Gia Loc","latitude":"20.851641","longitude":"106.2913","country":"VN"},{"geoLocId":"0001905691","geoLocName":"Huyen Thanh Mien","latitude":"20.77953","longitude":"106.22218","country":"VN"},{"geoLocId":"0001905699","geoLocName":"Tinh Hung Yen","latitude":"20.816669","longitude":"106.05","country":"VN"},{"geoLocId":"0001905702","geoLocName":"Huyen Phu Cu","latitude":"20.70997","longitude":"106.19744","country":"VN"},{"geoLocId":"0001905854","geoLocName":"Thi Xa Hung Yen","latitude":"20.656931","longitude":"106.05953","country":"VN"},{"geoLocId":"0001905855","geoLocName":"Thanh Pho Thai Nguyen","latitude":"21.560619","longitude":"105.80893","country":"VN"},{"geoLocId":"0001941660","geoLocName":"Nha Long","latitude":"21.465281","longitude":"105.93694","country":"VN"}],"mjtheme":["Financial and private sector development","Public sector governance","Public sector governance","Financial and private sector development"],"ccsa_practice_code":"PPP","themecode":"41,27,25,39","combined_practice_name":"Public Private Partnership","mjthemecode":"4,2,2,4","mjtheme_namecode":[{"name":"Financial and private sector development","code":"4"},{"name":"Public sector governance","code":"2"},{"name":"Public sector governance","code":"2"},{"name":"Financial and private sector development","code":"4"}],"sector_namecode":[{"name":"Rural and Inter-Urban Roads and Highways","code":"TI"},{"name":"Central government administration","code":"BC"}],"theme_namecode":[{"name":"Infrastructure services for private sector development","code":"39"},{"name":"Administrative and civil service reform","code":"25"},{"name":"Public expenditure, financial management and procurement","code":"27"},{"name":"Micro, Small and Medium Enterprise support","code":"41"}],"source":"IBRD","combined_practice_code":"PPP","majorsector_percent":[{"Name":"Transportation","Percent":93},{"Name":"Public Administration, Law, and Justice","Percent":7}],"projectdocs":[{"DocTypeDesc":"Implementation Completion and Results Report (ICR),  Vol.1","DocType":"ICR","EntityID":"000386194_20121105002702","DocURL":"http://www-wds.worldbank.org/servlet/WDSServlet?pcont=details&eid=000386194_20121105002702","DocDate":"27-SEP-2012"},{"DocTypeDesc":"Implementation Status and Results Report (ISRR),  Vol.1","DocType":"ISRR","EntityID":"0000A8056_2012040110480790","DocURL":"http://www-wds.worldbank.org/servlet/WDSServlet?pcont=details&eid=0000A8056_2012040110480790","DocDate":"01-APR-2012"},{"DocTypeDesc":"Agreement (AGR),  Vol.","DocType":"AGR","EntityID":"000362596_2011112311590302","DocURL":"http://www-wds.worldbank.org/servlet/WDSServlet?pcont=details&eid=000362596_2011112311590302","DocDate":"17-AUG-2011"},{"DocTypeDesc":"Implementation Status and Results Report (ISRR),  Vol.1","DocType":"ISRR","EntityID":"0000A8056_2011062707191707","DocURL":"http://www-wds.worldbank.org/servlet/WDSServlet?pcont=details&eid=0000A8056_2011062707191707","DocDate":"27-JUN-2011"},{"DocTypeDesc":"Procurement Plan (PROP),  Vol.1","DocType":"PROP","EntityID":"000333038_20100706050735","DocURL":"http://www-wds.worldbank.org/servlet/WDSServlet?pcont=details&eid=000333038_20100706050735","DocDate":"15-APR-2010"},{"DocTypeDesc":"Resettlement Plan (RPL),  Vol.9","DocType":"RPL","EntityID":"000333037_20090930005137","DocURL":"http://www-wds.worldbank.org/servlet/WDSServlet?pcont=details&eid=000333037_20090930005137","DocDate":"01-FEB-2008"},{"DocTypeDesc":"Resettlement Plan (RPL),  Vol.10","DocType":"RPL","EntityID":"000333037_20090930005940","DocURL":"http://www-wds.worldbank.org/servlet/WDSServlet?pcont=details&eid=000333037_20090930005940","DocDate":"01-FEB-2008"},{"DocTypeDesc":"Resettlement Plan (RPL),  Vol.8","DocType":"RPL","EntityID":"000333037_20090930004529","DocURL":"http://www-wds.worldbank.org/servlet/WDSServlet?pcont=details&eid=000333037_20090930004529","DocDate":"01-FEB-2008"},{"DocTypeDesc":"Resettlement Plan (RPL),  Vol.7","DocType":"RPL","EntityID":"000334955_20090925044151","DocURL":"http://www-wds.worldbank.org/servlet/WDSServlet?pcont=details&eid=000334955_20090925044151","DocDate":"12-OCT-2006"},{"DocTypeDesc":"Resettlement Plan (RPL),  Vol.6","DocType":"RPL","EntityID":"000334955_20090925043842","DocURL":"http://www-wds.worldbank.org/servlet/WDSServlet?pcont=details&eid=000334955_20090925043842","DocDate":"01-OCT-2006"},{"DocTypeDesc":"Resettlement Plan (RPL),  Vol.5","DocType":"RPL","EntityID":"000334955_20090925043208","DocURL":"http://www-wds.worldbank.org/servlet/WDSServlet?pcont=details&eid=000334955_20090925043208","DocDate":"01-AUG-2004"},{"DocTypeDesc":"Resettlement Plan (RPL),  Vol.1","DocType":"RPL","EntityID":"000334955_20090925042809","DocURL":"http://www-wds.worldbank.org/servlet/WDSServlet?pcont=details&eid=000334955_20090925042809","DocDate":"01-AUG-2004"},{"DocTypeDesc":"Indigenous Peoples Plan (IP),  Vol.3","DocType":"IP","EntityID":"000333037_20101110232451","DocURL":"http://www-wds.worldbank.org/servlet/WDSServlet?pcont=details&eid=000333037_20101110232451","DocDate":"01-AUG-2004"},{"DocTypeDesc":"Credit Agreement (),  Vol.","DocType":"000014464_2010031014580116","EntityID":"http://www-wds.worldbank.org/servlet/WDSServlet?pcont=details&eid=000014464_2010031014580116","DocURL":"27-MAY-2004"},{"DocTypeDesc":"Credit Agreement (CA),  Vol.","DocType":"CA","EntityID":"000014464_2010031014580116","DocURL":"http://www-wds.worldbank.org/servlet/WDSServlet?pcont=details&eid=000014464_2010031014580116","DocDate":"27-MAY-2004"},{"DocTypeDesc":"Project Information Document (PID),  Vol.1","DocType":"PID","EntityID":"000104615_20040329165305","DocURL":"http://www-wds.worldbank.org/servlet/WDSServlet?pcont=details&eid=000104615_20040329165305","DocDate":"29-MAR-2004"},{"DocTypeDesc":"Project Appraisal Document (PAD),  Vol.1","DocType":"PAD","EntityID":"000090341_20031202153839","DocURL":"http://www-wds.worldbank.org/servlet/WDSServlet?pcont=details&eid=000090341_20031202153839","DocDate":"24-NOV-2003"},{"DocTypeDesc":"Social Assessment (SOA),  Vol.1","DocType":"SOA","EntityID":"000012009_20031118143218","DocURL":"http://www-wds.worldbank.org/servlet/WDSServlet?pcont=details&eid=000012009_20031118143218","DocDate":"30-SEP-2003"},{"DocTypeDesc":"Resettlement Plan (RPL),  Vol.4","DocType":"RPL","EntityID":"000012009_20031118125853","DocURL":"http://www-wds.worldbank.org/servlet/WDSServlet?pcont=details&eid=000012009_20031118125853","DocDate":"30-SEP-2003"},{"DocTypeDesc":"Resettlement Plan (RPL),  Vol.3","DocType":"RPL","EntityID":"000012009_20031118125525","DocURL":"http://www-wds.worldbank.org/servlet/WDSServlet?pcont=details&eid=000012009_20031118125525","DocDate":"30-SEP-2003"},{"DocTypeDesc":"Resettlement Plan (RPL),  Vol.2","DocType":"RPL","EntityID":"000012009_20031118125205","DocURL":"http://www-wds.worldbank.org/servlet/WDSServlet?pcont=details&eid=000012009_20031118125205","DocDate":"30-SEP-2003"},{"DocTypeDesc":"Indigenous Peoples Plan (IP),  Vol.2","DocType":"IP","EntityID":"000356161_20100915020737","DocURL":"http://www-wds.worldbank.org/servlet/WDSServlet?pcont=details&eid=000356161_20100915020737","DocDate":"29-AUG-2003"},{"DocTypeDesc":"Environmental Assessment (EA),  Vol.2","DocType":"EA","EntityID":"000094946_0309060406113","DocURL":"http://www-wds.worldbank.org/servlet/WDSServlet?pcont=details&eid=000094946_0309060406113","DocDate":"31-JUL-2003"},{"DocTypeDesc":"Environmental Assessment (EA),  Vol.1","DocType":"EA","EntityID":"000094946_03031404195983","DocURL":"http://www-wds.worldbank.org/servlet/WDSServlet?pcont=details&eid=000094946_03031404195983","DocDate":"31-JUL-2003"},{"DocTypeDesc":"Indigenous Peoples Plan (IP),  Vol.1","DocType":"IP","EntityID":"000012009_20030825145250","DocURL":"http://www-wds.worldbank.org/servlet/WDSServlet?pcont=details&eid=000012009_20030825145250","DocDate":"30-JUL-2003"},{"DocTypeDesc":"Integrated Safeguards Data Sheet (ISDS),  Vol.1","DocType":"ISDS","EntityID":"000094946_03080104444482","DocURL":"http://www-wds.worldbank.org/servlet/WDSServlet?pcont=details&eid=000094946_03080104444482","DocDate":"28-JUL-2003"},{"DocTypeDesc":"Grant or Trust Fund Agreement (GTA),  Vol.","DocType":"GTA","EntityID":"000114496_2010052514260943","DocURL":"http://www-wds.worldbank.org/servlet/WDSServlet?pcont=details&eid=000114496_2010052514260943","DocDate":"21-SEP-2001"},{"DocTypeDesc":"Resettlement Plan (RPL),  Vol.11","DocType":"RPL","EntityID":"000333038_20100302010238","DocURL":"http://www-wds.worldbank.org/servlet/WDSServlet?pcont=details&eid=000333038_20100302010238","DocDate":"01-AUG-2001"}],"countryname":"Socialist Republic of Vietnam","ccsa_practice_name":"Public Private Partnership"}},"facets":{}}