{"rows":10,"os":"0","page":"1","total":"1","projects":{"P088619":{"id":"P088619","projectfinancialtype":"IDA","regionname":"Africa","prodline":"PE","lendinginstr":"Specific Investment Loan","lendinginstrtype":"IN","envassesmentcategorycode":"B","supplementprojectflg":"N","productlinetype":"L","projectstatusdisplay":"Closed","status":"Closed","project_name":"Emergency Living Conditions Improvement Support Project","board_approval_month":"May","approvalfy":"2005","boardapprovaldate":"2005-05-26T00:00:00Z","closingdate":"2012-06-30T00:00:00Z","lendprojectcost":"82,000,000","ibrdcommamt":"0","idacommamt":"82,000,000","totalamt":"82,000,000","grantamt":"0","borrower":"EET","impagency":"T","url":"http://www.worldbank.org/projects/P088619/emergency-living-conditions-improvement-support-project?lang=en","countryshortname":"Congo, Democratic Republic of","teamleaderupi":"250580","prodlinetext":"IBRD/IDA","keywords":{"cdata":"Action Plan, average travel time, basic infrastructure, basic social services, bicycles, businesses, cities, citizenship, communities, community activities, construction industry, description, Distribution network, drivers, economic activities, economic development, electricity, Electricity Infrastructure, Environmental Impact, equipment, existing capacity, female, Financial Management, Financial Reports, Habitats, health care, health centers, health facilities, Health Infrastructure, health sector, homes, hospital, human resource, human resource management, Impact Assessment, implementing agencies, Implementing Agency, Indigenous groups, indigenous people, Indigenous Peoples, Infrastructure Rehabilitation, inhabitants, inspection, institution, institutional capacity, Institutional Support, interurban road, intervention, IP, LIVING CONDITIONS, local capacity, local communities, local infrastructure, local participation, local population, localities, movement of people, national government, number of children, Number of people, number of persons, nutrition, O&M, passengers, pedestrian, pedestrian safety, Performance indicators, Policy Framework, procurement, procurement processes, Progress, Protocol, public works, quality control, quality education, quality of health care, quality of services, radios, Reduction in travel, Resettlement, result, RESULTS, road network, road shoulders, Roads, ROUTES, rural areas, Rural Population, safety issues, Sanitation, service delivery, sites"},"project_abstract":{"cdata":"The development objective of the Emergency Living Conditions Improvement Support Project for the Congo, Democratic Republic of (DRC) is to assist the Government in improving living conditions by strengthening the socio economic situation in key urban centers and in two isolated areas i.e.: (i) improving delivery of basic services in provincial capitals and key medium urban centers; and (ii) restoring key transport links to reconnect two isolated regions. The project was restructured in 2010 and extended for one (1) year to modify the scope and design and allow the completion of the activities. The main reason for the restructuring is to respond to the changing client needs, whereby certain activities are no longer a priority for the Government of DRC, which requested the Bank to focus on a set of key activities under PUSPRES (Projet d'urgence du Soutien au Processus de Reunification Economique et Sociale - Emergency Economic and Social Reunification Project)) that face a financing gap. A recommendation was made during the April 2010 supervision mission to prepare an additional financing to fill the financing gap. The additional financing option could not be pursued because of lack of International Development Association (IDA) funding. Subsequently, other options were explored, and the option of using the ongoing PUAACV (Projet d'urgence d'appui a l'amelioration des conditions de vie - Emergency Living Conditions Improvement Support Project) to finance the remaining activities was retained."},"country_namecode":"Democratic Republic of the Congo!$!ZR","sector1":{"Name":"General transportation sector","Percent":50},"sector2":{"Name":"General water, sanitation and flood protection sector","Percent":15},"sector3":{"Name":"Transmission and Distribution of Electricity","Percent":15},"sector4":{"Name":"General public administration sector","Percent":13},"sector5":{"Name":"General education sector","Percent":7},"theme1":{"Name":"Municipal governance and institution building","Percent":17},"theme2":{"Name":"Infrastructure services for private sector development","Percent":17},"theme3":{"Name":"Urban services and housing for the poor","Percent":17},"theme4":{"Name":"Participation and civic engagement","Percent":16},"theme5":{"Name":"Conflict prevention and post-conflict reconstruction","Percent":33},"totalcommamt":"82,000,000","sector":[{"Name":"General transportation sector"},{"Name":"General water, sanitation and flood protection sector"},{"Name":"Transmission and Distribution of Electricity"},{"Name":"General public administration sector"},{"Name":"General education sector"}],"docty":"Implementation Completion and Results Report,Implementation Status and Results Report,Implementation Status and Results Report,Implementation Status and Results Report,Project Paper,Project Paper,Agreement,Implementation Status and Results Report,Project Paper,Project Paper,Agreement,Resettlement Plan,Procurement Plan,Indigenous Peoples Plan,Indigenous Peoples Plan,Indigenous Peoples Plan,Indigenous Peoples Plan,Environmental Assessment,Resettlement Plan,Environmental Assessment,Agreement,Agreement,Technical Annex,Integrated Safeguards Data Sheet,Project Information Document","countrycode":"ZR","sectorcode":"EZ,BZ,LT,WZ,TZ","mjsector_namecode":[{"name":"Transportation","code":"TX"},{"name":"Water, sanitation and flood protection","code":"WX"},{"name":"Energy and mining","code":"LX"},{"name":"Public Administration, Law, and Justice","code":"BX"},{"name":"Education","code":"EX"}],"locations":[{"geoLocId":"0000204336","geoLocName":"Zone de Walikale","latitude":"-1.41667","longitude":"28.049999","country":"ZR"},{"geoLocId":"0000204909","geoLocName":"Tshilenge","latitude":"-6.2337298","longitude":"23.753771","country":"ZR"},{"geoLocId":"0000204953","geoLocName":"Tshikapa","latitude":"-6.4162102","longitude":"20.79995","country":"ZR"},{"geoLocId":"0000205703","geoLocName":"Province du Katanga","latitude":"-9","longitude":"26","country":"ZR"},{"geoLocId":"0000207570","geoLocName":"Mwene-Ditu","latitude":"-7.0090599","longitude":"23.45278","country":"ZR"},{"geoLocId":"0000207596","geoLocName":"Mweka","latitude":"-4.8518701","longitude":"21.5595","country":"ZR"},{"geoLocId":"0000209004","geoLocName":"Moanda","latitude":"4.2590098","longitude":"20.970819","country":"ZR"},{"geoLocId":"0000209228","geoLocName":"Mbuji-Mayi","latitude":"-6.1360302","longitude":"23.58979","country":"ZR"},{"geoLocId":"0000210802","geoLocName":"Luiza","latitude":"-7.19841","longitude":"22.39509","country":"ZR"},{"geoLocId":"0000211734","geoLocName":"Lisala","latitude":"2.1512699","longitude":"21.51672","country":"ZR"},{"geoLocId":"0000212730","geoLocName":"Kisangani","latitude":"0.51528001","longitude":"25.19099","country":"ZR"},{"geoLocId":"0000212902","geoLocName":"Kindu","latitude":"-2.9437301","longitude":"25.922371","country":"ZR"},{"geoLocId":"0000214138","geoLocName":"Province du Kasai-Oriental","latitude":"-6.1833301","longitude":"23.51667","country":"ZR"},{"geoLocId":"0000214139","geoLocName":"Province du Kasai-Occidental","latitude":"-5.3333302","longitude":"21.58333","country":"ZR"},{"geoLocId":"0000214481","geoLocName":"Kananga","latitude":"-5.8962402","longitude":"22.41659","country":"ZR"},{"geoLocId":"0000214509","geoLocName":"Kamwanga","latitude":"-6.26191","longitude":"22.631121","country":"ZR"},{"geoLocId":"0000214614","geoLocName":"Kamina","latitude":"-8.7350798","longitude":"24.99798","country":"ZR"},{"geoLocId":"0000216281","geoLocName":"Goma","latitude":"-1.67409","longitude":"29.228451","country":"ZR"},{"geoLocId":"0000216661","geoLocName":"Province de l' Equateur","latitude":"0.2","longitude":"18.933331","country":"ZR"},{"geoLocId":"0000217831","geoLocName":"Bukavu","latitude":"-2.4907701","longitude":"28.84281","country":"ZR"},{"geoLocId":"0000220435","geoLocName":"Akula","latitude":"2.3769701","longitude":"20.18898","country":"ZR"},{"geoLocId":"0000220436","geoLocName":"Akula","latitude":"2.3756399","longitude":"20.18458","country":"ZR"},{"geoLocId":"0000922704","geoLocName":"Lubumbashi","latitude":"-11.66089","longitude":"27.47938","country":"ZR"},{"geoLocId":"0000922773","geoLocName":"Kolwezi","latitude":"-10.71484","longitude":"25.46674","country":"ZR"},{"geoLocId":"0000922955","geoLocName":"Kasomeno","latitude":"-10.75092","longitude":"28.27301","country":"ZR"},{"geoLocId":"0000922965","geoLocName":"Kasenga","latitude":"-10.62917","longitude":"26.7575","country":"ZR"},{"geoLocId":"0000922966","geoLocName":"Kasenga","latitude":"-10.37115","longitude":"28.61149","country":"ZR"},{"geoLocId":"0002310763","geoLocName":"Zongo","latitude":"4.3428302","longitude":"18.594469","country":"ZR"},{"geoLocId":"0002312732","geoLocName":"Moanda","latitude":"-5.5276399","longitude":"19.846041","country":"ZR"},{"geoLocId":"0002312888","geoLocName":"Mbanza-Ngungu","latitude":"-5.2583699","longitude":"14.85838","country":"ZR"},{"geoLocId":"0002312895","geoLocName":"Mbandaka","latitude":"0.04865","longitude":"18.26034","country":"ZR"},{"geoLocId":"0002313002","geoLocName":"Matadi","latitude":"-5.79949","longitude":"13.44068","country":"ZR"},{"geoLocId":"0002313295","geoLocName":"Luozi","latitude":"-4.9430099","longitude":"14.13265","country":"ZR"},{"geoLocId":"0002313762","geoLocName":"Libenge","latitude":"3.6533201","longitude":"18.63566","country":"ZR"},{"geoLocId":"0002314705","geoLocName":"Kikwit","latitude":"-5.0409799","longitude":"18.816191","country":"ZR"},{"geoLocId":"0002314937","geoLocName":"Kenge","latitude":"-4.8079901","longitude":"17.04237","country":"ZR"},{"geoLocId":"0002315417","geoLocName":"Inongo","latitude":"-1.9275","longitude":"18.288099","country":"ZR"},{"geoLocId":"0002315728","geoLocName":"Gemena","latitude":"3.25651","longitude":"19.772341","country":"ZR"},{"geoLocId":"0002316259","geoLocName":"Bulungu","latitude":"-4.5443702","longitude":"18.60364","country":"ZR"},{"geoLocId":"0002316357","geoLocName":"Boyabo","latitude":"3.71488","longitude":"18.77026","country":"ZR"},{"geoLocId":"0002317110","geoLocName":"Bikoro","latitude":"-0.73280001","longitude":"18.134069","country":"ZR"},{"geoLocId":"0002317277","geoLocName":"Province du Bas-Congo","latitude":"-5.3333302","longitude":"14.33333","country":"ZR"},{"geoLocId":"0002317299","geoLocName":"Bari","latitude":"3.3192101","longitude":"19.39065","country":"ZR"},{"geoLocId":"0002317396","geoLocName":"Province de Bandundu","latitude":"-4","longitude":"18","country":"ZR"},{"geoLocId":"0002317397","geoLocName":"Bandundu","latitude":"-3.31687","longitude":"17.38063","country":"ZR"}],"mjtheme":["Urban development","Financial and private sector development","Urban development","Social dev/gender/inclusion","Social dev/gender/inclusion"],"themecode":"58,57,71,39,73","mjthemecode":"9,4,9,7,7","mjtheme_namecode":[{"name":"Urban development","code":"9"},{"name":"Financial and private sector development","code":"4"},{"name":"Urban development","code":"9"},{"name":"Social dev/gender/inclusion","code":"7"},{"name":"Social dev/gender/inclusion","code":"7"}],"sector_namecode":[{"name":"General transportation sector","code":"TZ"},{"name":"General water, sanitation and flood protection sector","code":"WZ"},{"name":"Transmission and Distribution of Electricity","code":"LT"},{"name":"General public administration sector","code":"BZ"},{"name":"General education sector","code":"EZ"}],"theme_namecode":[{"name":"Municipal governance and institution building","code":"73"},{"name":"Infrastructure services for private sector development","code":"39"},{"name":"Urban services and housing for the poor","code":"71"},{"name":"Participation and civic engagement","code":"57"},{"name":"Conflict prevention and post-conflict reconstruction","code":"58"}],"source":"IBRD","majorsector_percent":[{"Name":"Transportation","Percent":50},{"Name":"Water, sanitation and flood protection","Percent":15},{"Name":"Energy and mining","Percent":15},{"Name":"Public Administration, Law, and Justice","Percent":13},{"Name":"Education","Percent":7}],"projectdocs":[{"DocTypeDesc":"Implementation Completion and Results Report (ICR),  Vol.1","DocType":"ICR","EntityID":"000333038_20121231011142","DocURL":"http://www-wds.worldbank.org/servlet/WDSServlet?pcont=details&eid=000333038_20121231011142","DocDate":"21-DEC-2012"},{"DocTypeDesc":"Implementation Status and Results Report (ISRR),  Vol.1","DocType":"ISRR","EntityID":"0000A8056_2012070412215349","DocURL":"http://www-wds.worldbank.org/servlet/WDSServlet?pcont=details&eid=0000A8056_2012070412215349","DocDate":"04-JUL-2012"},{"DocTypeDesc":"Implementation Status and Results Report (ISRR),  Vol.1","DocType":"ISRR","EntityID":"0000A8056_2012010916010497","DocURL":"http://www-wds.worldbank.org/servlet/WDSServlet?pcont=details&eid=0000A8056_2012010916010497","DocDate":"09-JAN-2012"},{"DocTypeDesc":"Implementation Status and Results Report (ISRR),  Vol.1","DocType":"ISRR","EntityID":"0000A8056_2011070918035339","DocURL":"http://www-wds.worldbank.org/servlet/WDSServlet?pcont=details&eid=0000A8056_2011070918035339","DocDate":"09-JUL-2011"},{"DocTypeDesc":"Project Paper (PJPR),  Vol.1","DocType":"PJPR","EntityID":"000333038_20110405011526","DocURL":"http://www-wds.worldbank.org/servlet/WDSServlet?pcont=details&eid=000333038_20110405011526","DocDate":"30-MAR-2011"},{"DocTypeDesc":"Project Paper (PJPR),  Vol.2","DocType":"PJPR","EntityID":"000333038_20110406013815","DocURL":"http://www-wds.worldbank.org/servlet/WDSServlet?pcont=details&eid=000333038_20110406013815","DocDate":"30-MAR-2011"},{"DocTypeDesc":"Agreement (AGR),  Vol.","DocType":"AGR","EntityID":"000362596_2011042017470094","DocURL":"http://www-wds.worldbank.org/servlet/WDSServlet?pcont=details&eid=000362596_2011042017470094","DocDate":"30-MAR-2011"},{"DocTypeDesc":"Implementation Status and Results Report (ISRR),  Vol.1","DocType":"ISRR","EntityID":"0000A8056_2011032719132828","DocURL":"http://www-wds.worldbank.org/servlet/WDSServlet?pcont=details&eid=0000A8056_2011032719132828","DocDate":"27-MAR-2011"},{"DocTypeDesc":"Project Paper (PJPR),  Vol.2","DocType":"PJPR","EntityID":"000356161_20100909011511","DocURL":"http://www-wds.worldbank.org/servlet/WDSServlet?pcont=details&eid=000356161_20100909011511","DocDate":"27-JUL-2010"},{"DocTypeDesc":"Project Paper (PJPR),  Vol.1","DocType":"PJPR","EntityID":"000356161_20100909011205","DocURL":"http://www-wds.worldbank.org/servlet/WDSServlet?pcont=details&eid=000356161_20100909011205","DocDate":"26-JUL-2010"},{"DocTypeDesc":"Agreement (AGR),  Vol.","DocType":"AGR","EntityID":"000171540_2010092408252921","DocURL":"http://www-wds.worldbank.org/servlet/WDSServlet?pcont=details&eid=000171540_2010092408252921","DocDate":"26-JUL-2010"},{"DocTypeDesc":"Resettlement Plan (RPL),  Vol.2","DocType":"RPL","EntityID":"000333037_20110621030408","DocURL":"http://www-wds.worldbank.org/servlet/WDSServlet?pcont=details&eid=000333037_20110621030408","DocDate":"01-JAN-2009"},{"DocTypeDesc":"Procurement Plan (PROP),  Vol.1","DocType":"PROP","EntityID":"000333037_20080624234153","DocURL":"http://www-wds.worldbank.org/servlet/WDSServlet?pcont=details&eid=000333037_20080624234153","DocDate":"01-MAY-2008"},{"DocTypeDesc":"Indigenous Peoples Plan (IP),  Vol.3","DocType":"IP","EntityID":"000333037_20110427025250","DocURL":"http://www-wds.worldbank.org/servlet/WDSServlet?pcont=details&eid=000333037_20110427025250","DocDate":"01-JAN-2008"},{"DocTypeDesc":"Indigenous Peoples Plan (IP),  Vol.2","DocType":"IP","EntityID":"000333037_20110427024606","DocURL":"http://www-wds.worldbank.org/servlet/WDSServlet?pcont=details&eid=000333037_20110427024606","DocDate":"01-JAN-2008"},{"DocTypeDesc":"Indigenous Peoples Plan (IP),  Vol.4","DocType":"IP","EntityID":"000386194_20110429010227","DocURL":"http://www-wds.worldbank.org/servlet/WDSServlet?pcont=details&eid=000386194_20110429010227","DocDate":"15-OCT-2006"},{"DocTypeDesc":"Indigenous Peoples Plan (IP),  Vol.1","DocType":"IP","EntityID":"000020953_20110421143242","DocURL":"http://www-wds.worldbank.org/servlet/WDSServlet?pcont=details&eid=000020953_20110421143242","DocDate":"15-OCT-2006"},{"DocTypeDesc":"Environmental Assessment (EA),  Vol.2","DocType":"EA","EntityID":"000160016_20060315172131","DocURL":"http://www-wds.worldbank.org/servlet/WDSServlet?pcont=details&eid=000160016_20060315172131","DocDate":"01-JAN-2006"},{"DocTypeDesc":"Resettlement Plan (RPL),  Vol.1","DocType":"RPL","EntityID":"000012009_20060309131001","DocURL":"http://www-wds.worldbank.org/servlet/WDSServlet?pcont=details&eid=000012009_20060309131001","DocDate":"01-JAN-2006"},{"DocTypeDesc":"Environmental Assessment (EA),  Vol.1","DocType":"EA","EntityID":"000160016_20060315170216","DocURL":"http://www-wds.worldbank.org/servlet/WDSServlet?pcont=details&eid=000160016_20060315170216","DocDate":"01-JAN-2006"},{"DocTypeDesc":"Agreement (),  Vol.","DocType":"000014464_2005121210221822","EntityID":"http://www-wds.worldbank.org/servlet/WDSServlet?pcont=details&eid=000014464_2005121210221822","DocURL":"28-JUN-2005"},{"DocTypeDesc":"Agreement (AGR),  Vol.","DocType":"AGR","EntityID":"000014464_2005121210221822","DocURL":"http://www-wds.worldbank.org/servlet/WDSServlet?pcont=details&eid=000014464_2005121210221822","DocDate":"28-JUN-2005"},{"DocTypeDesc":"Technical Annex (TAN),  Vol.1","DocType":"TAN","EntityID":"000090341_20050510133029","DocURL":"http://www-wds.worldbank.org/servlet/WDSServlet?pcont=details&eid=000090341_20050510133029","DocDate":"29-APR-2005"},{"DocTypeDesc":"Integrated Safeguards Data Sheet (ISDS),  Vol.1","DocType":"ISDS","EntityID":"000104615_20050111114757","DocURL":"http://www-wds.worldbank.org/servlet/WDSServlet?pcont=details&eid=000104615_20050111114757","DocDate":"30-NOV-2004"},{"DocTypeDesc":"Project Information Document (PID),  Vol.1","DocType":"PID","EntityID":"000104615_20050104102300","DocURL":"http://www-wds.worldbank.org/servlet/WDSServlet?pcont=details&eid=000104615_20050104102300","DocDate":"30-NOV-2004"}],"countryname":"Democratic Republic of the Congo"}},"facets":{}}