{"rows":10,"os":"0","page":"1","total":"1","projects":{"P101298":{"id":"P101298","projectfinancialtype":"IDA","regionname":"Latin America and Caribbean","prodline":"PE","lendinginstr":"Specific Investment Loan","lendinginstrtype":"IN","envassesmentcategorycode":"B","supplementprojectflg":"N","productlinetype":"L","projectstatusdisplay":"Closed","status":"Closed","project_name":"Second Participatory Rural Investment","board_approval_month":"December","approvalfy":"2008","boardapprovaldate":"2007-12-20T00:00:00Z","closingdate":"2013-11-15T00:00:00Z","lendprojectcost":"78,090,000","ibrdcommamt":"0","idacommamt":"20,000,000","totalamt":"20,000,000","grantamt":"0","borrower":"EPULIC","impagency":"E I","url":"http://www.worldbank.org/projects/P101298/second-participatory-rural-investment?lang=en","countryshortname":"Bolivia","teamleaderupi":"153560","prodlinetext":"IBRD/IDA","keywords":{"cdata":"accountability, accounting, administrative costs, Agricultural Development, Agricultural Development Project, assets, audits, bridge, community organizations, consolidation, costs of roads, debt, Decentralization, deconcentration, devolution, drainage, Economic Analysis, Economic Development, economic growth, economic initiatives, economies of scale, employment, Environmental, environmental impacts, Environmental Management, Exchange Rate, exploitation, extreme poverty, farmers, Financial incentives, Financial Management, financial transfers, fiscal policies, fishing, fixed fee, food safety, forestry, highways, Housing, Human Development, Human Development Index, income growth, Indigenous Peoples, inequality, infrastructure planning, institutional capacity, Irrigation, lack of incentives, legal framework, local authorities, local government, local governments, maturity, migration, Municipal, Municipal Development, municipal governments, municipal investments, Municipal Road, municipalities, national income, natural resources, O&M, Oil, pastures, Patronage, political influence, poor, poor communities, poor producers, poor rural areas, poverty alleviation, poverty reduction, prefectures, Present Value, privatization, producers, public goods, recurrent expenditures, reorganization, Resettlement, resources management, Risk factors, road, road development, road improvements, road investment, road maintenance, road network, Roads, RURAL, Rural access, rural area, rural areas, Rural"},"project_abstract":{"cdata":"The objective of the Second Participatory Rural Investment Project is to pilot the consolidation of institutional arrangements between the national, prefecture and municipal governments and civil society for sustainable management of sub-national public investment in selected productive sectors with an emphasis on territorial development. There are 3 components to the project. Component 1 (Institutional Strengthening) will facilitate to increase the scale of planning, investments and O&M activities, while establishing clear and non-discretional rules for coordination and co-financing between prefectures and municipalities. Component 2 (Productive Investments) will provide support for the implementation of plans prepared under component 1. The component would provide national (IDA and bilateral) co-financing solely for eligible investments that fall under the competencies of municipal governments as well as for improving poor communities' access to productive assets. Component 3 (Project Management) will finance technical teams, studies, and related administrative costs which will support the operation of a National Operations Unit (NOU) integrated within VMD's structure, and up to nine Territorial Operating Units (TOU) in the departments of the Borrower."},"country_namecode":"Plurinational State of Bolivia!$!BO","projectinfo":"<![CDATA[<Project><LangCode>ES</LangCode><ProjectName>Proyecto de desarrollo concurrente regional</ProjectName><ProjectAbstract>El objetivo del segundo Proyecto de inversi\u00f3n rural participativa es iniciar el proceso de consolidaci\u00f3n de los planes institucionales entre las alcald\u00edas, los gobiernos municipales, el gobierno central y la sociedad civil para desarrollar una gesti\u00f3n sostenible de las inversiones p\u00fablicas a nivel local en zonas rurales de gran potencial productivo haciendo hincapi\u00e9 en el desarrollo territorial. El proyecto consta de tres componentes. El componente 1 \u2015Fortalecimiento institucional\u2015 facilitar\u00e1 el aumento de la magnitud de la planificaci\u00f3n, las inversiones y las actividades de gesti\u00f3n; adem\u00e1s, establecer\u00e1 normas claras y no discrecionales para la coordinaci\u00f3n y el cofinanciamiento entre las alcald\u00edas y los gobiernos municipales. El componente 2 \u2015Inversiones productivas\u2015 prestar\u00e1 apoyo a la ejecuci\u00f3n de los planes preparados en virtud del componente 1. El componente proporcionar\u00e1 cofinanciamiento nacional (de la AIF y bilateral) \u00fanicamente para las inversiones que re\u00fanan los requisitos pertinentes y que queden dentro del \u00e1mbito de competencias de los gobiernos municipales, as\u00ed como para mejorar el acceso de las comunidades pobres a los activos productivos. El componente 3 \u2015Gesti\u00f3n del proyecto\u2015 financiar\u00e1 los equipos t\u00e9cnicos, los estudios y los costos administrativos relacionados que apoyen el funcionamiento de una unidad nacional de operaciones, integrada dentro de la estructura del Viceministerio de Descentralizaci\u00f3n, y hasta nueve unidades operativas territoriales en los departamentos del prestatario.</ProjectAbstract></Project>]]>","sector1":{"Name":"Rural and Inter-Urban Roads and Highways","Percent":40},"sector2":{"Name":"Irrigation and drainage","Percent":30},"sector3":{"Name":"Sub-national government administration","Percent":15},"sector4":{"Name":"Central government administration","Percent":10},"sector5":{"Name":"General agriculture, fishing and forestry sector","Percent":5},"theme1":{"Name":"Rural services and infrastructure","Percent":33},"theme2":{"Name":"Indigenous peoples","Percent":17},"theme3":{"Name":"Participation and civic engagement","Percent":17},"theme4":{"Name":"Municipal governance and institution building","Percent":16},"theme5":{"Name":"Other environment and natural resources management","Percent":17},"totalcommamt":"20,000,000","sector":[{"Name":"Rural and Inter-Urban Roads and Highways"},{"Name":"Irrigation and drainage"},{"Name":"Sub-national government administration"},{"Name":"Central government administration"},{"Name":"General agriculture, fishing and forestry sector"}],"docty":"Implementation Status and Results Report,Implementation Status and Results Report,Implementation Status and Results Report,Agreement,Project Paper,Integrated Safeguards Data Sheet,Implementation Status and Results Report,Implementation Status and Results Report,Procurement Plan,Financing Agreement,Project Appraisal Document,Integrated Safeguards Data Sheet,Integrated Safeguards Data Sheet,Project Information Document,Project Information Document,Indigenous Peoples Plan,Environmental Assessment,Integrated Safeguards Data Sheet","countrycode":"BO","sectorcode":"AZ,BC,BH,AI,TI","mjsector_namecode":[{"name":"Transportation","code":"TX"},{"name":"Agriculture, fishing, and forestry","code":"AX"},{"name":"Public Administration, Law, and Justice","code":"BX"},{"name":"Public Administration, Law, and Justice","code":"BX"},{"name":"Agriculture, fishing, and forestry","code":"AX"}],"locations":[{"geoLocId":"0003661511","geoLocName":"Santos Mercado","latitude":"-9.9499998","longitude":"-66.616669","country":"BO"},{"geoLocId":"0003661527","geoLocName":"Porvenir","latitude":"-9.9833298","longitude":"-66.73333","country":"BO"},{"geoLocId":"0003900894","geoLocName":"Yunguyo","latitude":"-18.4","longitude":"-67.883331","country":"BO"},{"geoLocId":"0003900918","geoLocName":"Yunchara","latitude":"-21.824169","longitude":"-65.227943","country":"BO"},{"geoLocId":"0003901178","geoLocName":"Yacuiba","latitude":"-22.01643","longitude":"-63.677528","country":"BO"},{"geoLocId":"0003901182","geoLocName":"Yaco","latitude":"-17.15","longitude":"-67.400002","country":"BO"},{"geoLocId":"0003901352","geoLocName":"Vitichi","latitude":"-20.20726","longitude":"-65.495209","country":"BO"},{"geoLocId":"0003901501","geoLocName":"Villazon","latitude":"-22.08659","longitude":"-65.594223","country":"BO"},{"geoLocId":"0003901507","geoLocName":"Villa Viscarra","latitude":"-17.98333","longitude":"-65.599998","country":"BO"},{"geoLocId":"0003901512","geoLocName":"Vaca Guzman","latitude":"-19.895309","longitude":"-63.75135","country":"BO"},{"geoLocId":"0003901540","geoLocName":"Villa Orias","latitude":"-19.92009","longitude":"-64.482361","country":"BO"},{"geoLocId":"0003901547","geoLocName":"Villamontes","latitude":"-21.26235","longitude":"-63.469028","country":"BO"},{"geoLocId":"0003901597","geoLocName":"Villa Abecia","latitude":"-21","longitude":"-65.383331","country":"BO"},{"geoLocId":"0003901874","geoLocName":"Vallegrande","latitude":"-18.489229","longitude":"-64.106087","country":"BO"},{"geoLocId":"0003901894","geoLocName":"Vacas","latitude":"-17.575199","longitude":"-65.580322","country":"BO"},{"geoLocId":"0003901903","geoLocName":"Uyuni","latitude":"-20.459669","longitude":"-66.825027","country":"BO"},{"geoLocId":"0003901969","geoLocName":"Urubicha","latitude":"-15.39286","longitude":"-62.946609","country":"BO"},{"geoLocId":"0003901986","geoLocName":"Uriondo","latitude":"-21.69721","longitude":"-64.65509","country":"BO"},{"geoLocId":"0003902024","geoLocName":"Uncia","latitude":"-18.46718","longitude":"-66.570099","country":"BO"},{"geoLocId":"0003902200","geoLocName":"Turco","latitude":"-18.182159","longitude":"-68.192108","country":"BO"},{"geoLocId":"0003902202","geoLocName":"Tupiza","latitude":"-21.443451","longitude":"-65.71875","country":"BO"},{"geoLocId":"0003902377","geoLocName":"La Santisima Trinidad","latitude":"-14.83333","longitude":"-64.900002","country":"BO"},{"geoLocId":"0003902504","geoLocName":"Totoral","latitude":"-18.495871","longitude":"-66.873802","country":"BO"},{"geoLocId":"0003902522","geoLocName":"Totora","latitude":"-17.816669","longitude":"-68.116669","country":"BO"},{"geoLocId":"0003902523","geoLocName":"Totora","latitude":"-17.72662","longitude":"-65.193199","country":"BO"},{"geoLocId":"0003902587","geoLocName":"Torotoro","latitude":"-18.13504","longitude":"-65.762421","country":"BO"},{"geoLocId":"0003902673","geoLocName":"Tomayapo","latitude":"-21.216669","longitude":"-65.033333","country":"BO"},{"geoLocId":"0003902794","geoLocName":"Todos Santos","latitude":"-19.0142","longitude":"-68.719261","country":"BO"},{"geoLocId":"0003902926","geoLocName":"Tipuani","latitude":"-15.55","longitude":"-68","country":"BO"},{"geoLocId":"0003902949","geoLocName":"Tinquipaya","latitude":"-17.338011","longitude":"-66.21579","country":"BO"},{"geoLocId":"0003903164","geoLocName":"Teoponte","latitude":"-15.46667","longitude":"-67.816673","country":"BO"},{"geoLocId":"0003903463","geoLocName":"Tapacari","latitude":"-17.516069","longitude":"-66.620644","country":"BO"},{"geoLocId":"0003903687","geoLocName":"Tahua","latitude":"-19.889999","longitude":"-67.695419","country":"BO"},{"geoLocId":"0003903733","geoLocName":"Tacopaya","latitude":"-17.838079","longitude":"-66.537498","country":"BO"},{"geoLocId":"0003904043","geoLocName":"Sorata","latitude":"-15.76667","longitude":"-68.633331","country":"BO"},{"geoLocId":"0003904221","geoLocName":"Sipe Sipe","latitude":"-17.450001","longitude":"-66.383331","country":"BO"},{"geoLocId":"0003904354","geoLocName":"Sicaya","latitude":"-17.799641","longitude":"-66.334213","country":"BO"},{"geoLocId":"0003904608","geoLocName":"Sapahaqui","latitude":"-16.88854","longitude":"-67.949493","country":"BO"},{"geoLocId":"0003904656","geoLocName":"Santivanez","latitude":"-17.54598","longitude":"-66.246101","country":"BO"},{"geoLocId":"0003904736","geoLocName":"Santa Rosa del Abuna","latitude":"-10.60743","longitude":"-67.452469","country":"BO"},{"geoLocId":"0003904793","geoLocName":"Santa Rosa","latitude":"-14.16667","longitude":"-66.883331","country":"BO"},{"geoLocId":"0003905007","geoLocName":"Santa Ana de Yacuma","latitude":"-13.75","longitude":"-65.433327","country":"BO"},{"geoLocId":"0003905084","geoLocName":"San Ramon","latitude":"-14.48333","longitude":"-63.150002","country":"BO"},{"geoLocId":"0003905119","geoLocName":"San Pedro de Quemez","latitude":"-20.74744","longitude":"-68.049858","country":"BO"},{"geoLocId":"0003905124","geoLocName":"San Pedro de Buena Vista","latitude":"-18.268629","longitude":"-65.982498","country":"BO"},{"geoLocId":"0003905190","geoLocName":"San Pablo de Lipez","latitude":"-21.68782","longitude":"-66.620468","country":"BO"},{"geoLocId":"0003905414","geoLocName":"San Lorenzo","latitude":"-21.417919","longitude":"-64.749809","country":"BO"},{"geoLocId":"0003905436","geoLocName":"San Lorenzo","latitude":"-11.89681","longitude":"-66.877739","country":"BO"},{"geoLocId":"0003905620","geoLocName":"San Javier","latitude":"-17.35","longitude":"-63.583328","country":"BO"},{"geoLocId":"0003905622","geoLocName":"San Javier","latitude":"-14.56667","longitude":"-64.833328","country":"BO"},{"geoLocId":"0003905660","geoLocName":"San Ignacio de Moxo","latitude":"-15","longitude":"-65.650002","country":"BO"},{"geoLocId":"0003905789","geoLocName":"San Buena Ventura","latitude":"-14.46667","longitude":"-67.583328","country":"BO"},{"geoLocId":"0003905792","geoLocName":"San Borja","latitude":"-14.81667","longitude":"-66.849998","country":"BO"},{"geoLocId":"0003905910","geoLocName":"San Andres","latitude":"-15.6","longitude":"-64.26667","country":"BO"},{"geoLocId":"0003905921","geoLocName":"San Agustin","latitude":"-21.75","longitude":"-66.349998","country":"BO"},{"geoLocId":"0003905922","geoLocName":"San Agustin","latitude":"-21.156389","longitude":"-67.680496","country":"BO"},{"geoLocId":"0003906038","geoLocName":"Salinas de Garci Mendoza","latitude":"-19.637211","longitude":"-67.675179","country":"BO"},{"geoLocId":"0003906107","geoLocName":"Provincia Sajama","latitude":"-18.200001","longitude":"-68.550003","country":"BO"},{"geoLocId":"0003906127","geoLocName":"Saipina","latitude":"-18.094431","longitude":"-64.58287","country":"BO"},{"geoLocId":"0003906187","geoLocName":"Sacaca","latitude":"-18.070101","longitude":"-66.385017","country":"BO"},{"geoLocId":"0003906201","geoLocName":"Sabaya","latitude":"-19.01577","longitude":"-68.37204","country":"BO"},{"geoLocId":"0003906209","geoLocName":"Rurrenabaque","latitude":"-14.44125","longitude":"-67.527809","country":"BO"},{"geoLocId":"0003906466","geoLocName":"Riberalta","latitude":"-11.00654","longitude":"-66.063118","country":"BO"},{"geoLocId":"0003906478","geoLocName":"Reyes","latitude":"-14.2952","longitude":"-67.336243","country":"BO"},{"geoLocId":"0003906558","geoLocName":"Ravelo","latitude":"-18.8069","longitude":"-65.51178","country":"BO"},{"geoLocId":"0003906676","geoLocName":"Quirusillas","latitude":"-18.3358","longitude":"-63.947201","country":"BO"},{"geoLocId":"0003906764","geoLocName":"Quime","latitude":"-17.033331","longitude":"-67.25","country":"BO"},{"geoLocId":"0003906765","geoLocName":"Quime","latitude":"-16.98333","longitude":"-67.216667","country":"BO"},{"geoLocId":"0003906825","geoLocName":"Quiabaya","latitude":"-15.61667","longitude":"-68.76667","country":"BO"},{"geoLocId":"0003907237","geoLocName":"Puerto Gonzalo Moreno","latitude":"-11.08255","longitude":"-66.173668","country":"BO"},{"geoLocId":"0003907361","geoLocName":"Pucarani","latitude":"-16.39959","longitude":"-68.477531","country":"BO"},{"geoLocId":"0003907398","geoLocName":"Pucara","latitude":"-18.7159","longitude":"-64.183891","country":"BO"},{"geoLocId":"0003907599","geoLocName":"Postrervalle","latitude":"-18.49078","longitude":"-63.834431","country":"BO"},{"geoLocId":"0003907669","geoLocName":"Porco","latitude":"-21.063101","longitude":"-66.430191","country":"BO"},{"geoLocId":"0003907670","geoLocName":"Porco","latitude":"-19.799351","longitude":"-65.988724","country":"BO"},{"geoLocId":"0003907767","geoLocName":"Pocoata","latitude":"-18.69952","longitude":"-66.1633","country":"BO"},{"geoLocId":"0003908672","geoLocName":"Pampa Grande","latitude":"-18.090389","longitude":"-64.111908","country":"BO"},{"geoLocId":"0003909042","geoLocName":"Padcaya","latitude":"-21.88682","longitude":"-64.713211","country":"BO"},{"geoLocId":"0003909339","geoLocName":"Omereque","latitude":"-18.1064","longitude":"-64.907997","country":"BO"},{"geoLocId":"0003909393","geoLocName":"Ocuri","latitude":"-18.841829","longitude":"-65.79644","country":"BO"},{"geoLocId":"0003909446","geoLocName":"Provincia Nuflo de Chavez","latitude":"-15.91667","longitude":"-62.5","country":"BO"},{"geoLocId":"0003909935","geoLocName":"Moro Moro","latitude":"-18.36652","longitude":"-64.323112","country":"BO"},{"geoLocId":"0003909950","geoLocName":"Morochata","latitude":"-17.866671","longitude":"-65.816673","country":"BO"},{"geoLocId":"0003909953","geoLocName":"Morochata","latitude":"-17.2349","longitude":"-66.531853","country":"BO"},{"geoLocId":"0003910094","geoLocName":"Monteagudo","latitude":"-19.799891","longitude":"-63.954609","country":"BO"},{"geoLocId":"0003910251","geoLocName":"Mojinete","latitude":"-21.81377","longitude":"-66.38768","country":"BO"},{"geoLocId":"0003910758","geoLocName":"Mapiri","latitude":"-15.25","longitude":"-68.166672","country":"BO"},{"geoLocId":"0003910880","geoLocName":"Malla","latitude":"-17.08333","longitude":"-67.48333","country":"BO"},{"geoLocId":"0003910901","geoLocName":"Mairana","latitude":"-18.11919","longitude":"-63.959648","country":"BO"},{"geoLocId":"0003910919","geoLocName":"Magdalena","latitude":"-13.23333","longitude":"-64.199997","country":"BO"},{"geoLocId":"0003910957","geoLocName":"Machareti","latitude":"-20.81485","longitude":"-63.36277","country":"BO"},{"geoLocId":"0003911012","geoLocName":"Luribay","latitude":"-17.049999","longitude":"-67.666672","country":"BO"},{"geoLocId":"0003911202","geoLocName":"Loreto","latitude":"-15.19275","longitude":"-64.758873","country":"BO"},{"geoLocId":"0003911334","geoLocName":"Llica","latitude":"-19.85066","longitude":"-68.248466","country":"BO"},{"geoLocId":"0003911409","geoLocName":"Llallagua","latitude":"-18.424259","longitude":"-66.583878","country":"BO"},{"geoLocId":"0003911447","geoLocName":"Provincia Litoral","latitude":"-18.5","longitude":"-68.25","country":"BO"},{"geoLocId":"0003911814","geoLocName":"Las Carreras","latitude":"-21.25","longitude":"-65.283333","country":"BO"},{"geoLocId":"0003911837","geoLocName":"La Rivera","latitude":"-19.004551","longitude":"-68.639832","country":"BO"},{"geoLocId":"0003912150","geoLocName":"Lagunillas","latitude":"-19.65086","longitude":"-63.674782","country":"BO"},{"geoLocId":"0003913855","geoLocName":"Ixiamas","latitude":"-13.75","longitude":"-68.150002","country":"BO"},{"geoLocId":"0003914147","geoLocName":"Provincia Inquisivi","latitude":"-17","longitude":"-67.083328","country":"BO"},{"geoLocId":"0003914148","geoLocName":"Inquisivi","latitude":"-16.920019","longitude":"-67.173462","country":"BO"},{"geoLocId":"0003914183","geoLocName":"Ingavi","latitude":"-11.69954","longitude":"-68.970551","country":"BO"},{"geoLocId":"0003914197","geoLocName":"Independencia","latitude":"-17.083891","longitude":"-66.818039","country":"BO"},{"geoLocId":"0003914227","geoLocName":"Incahuasi","latitude":"-20.779461","longitude":"-64.867363","country":"BO"},{"geoLocId":"0003914352","geoLocName":"Ichoca","latitude":"-17.216669","longitude":"-69.333328","country":"BO"},{"geoLocId":"0003914662","geoLocName":"Huayllamarca","latitude":"-17.83449","longitude":"-67.940567","country":"BO"},{"geoLocId":"0003915061","geoLocName":"Huachacalla","latitude":"-18.79298","longitude":"-68.261574","country":"BO"},{"geoLocId":"0003915067","geoLocName":"Huacaya","latitude":"-20.744539","longitude":"-63.665009","country":"BO"},{"geoLocId":"0003915079","geoLocName":"Huacaraje","latitude":"-13.55","longitude":"-63.75","country":"BO"},{"geoLocId":"0003915317","geoLocName":"Gutierrez","latitude":"-19.433331","longitude":"-62.48333","country":"BO"},{"geoLocId":"0003915350","geoLocName":"Guayaramerin","latitude":"-10.83676","longitude":"-65.361359","country":"BO"},{"geoLocId":"0003915436","geoLocName":"Guanay","latitude":"-15.49756","longitude":"-67.883324","country":"BO"},{"geoLocId":"0003915590","geoLocName":"General Saavedra","latitude":"-17.22554","longitude":"-63.21167","country":"BO"},{"geoLocId":"0003915765","geoLocName":"Filadelfia","latitude":"-11.3464","longitude":"-68.757767","country":"BO"},{"geoLocId":"0003915822","geoLocName":"Exaltacion","latitude":"-13.27856","longitude":"-65.239952","country":"BO"},{"geoLocId":"0003917877","geoLocName":"Esmeralda","latitude":"-18.84586","longitude":"-68.283867","country":"BO"},{"geoLocId":"0003917911","geoLocName":"Escara","latitude":"-18.859631","longitude":"-68.169968","country":"BO"},{"geoLocId":"0003917939","geoLocName":"Entre Rios","latitude":"-21.526609","longitude":"-64.172989","country":"BO"},{"geoLocId":"0003918025","geoLocName":"El Trigal","latitude":"-18.305559","longitude":"-64.14917","country":"BO"},{"geoLocId":"0003918098","geoLocName":"El Puente","latitude":"-21.23661","longitude":"-65.206268","country":"BO"},{"geoLocId":"0003918678","geoLocName":"Culpina","latitude":"-20.82358","longitude":"-64.944923","country":"BO"},{"geoLocId":"0003918707","geoLocName":"Cuevo","latitude":"-20.452511","longitude":"-63.518181","country":"BO"},{"geoLocId":"0003918972","geoLocName":"Santiago de Cotagaita","latitude":"-20.81724","longitude":"-65.660873","country":"BO"},{"geoLocId":"0003919061","geoLocName":"Corque","latitude":"-18.34984","longitude":"-67.681847","country":"BO"},{"geoLocId":"0003919352","geoLocName":"Concepcion","latitude":"-16.433331","longitude":"-60.900002","country":"BO"},{"geoLocId":"0003919698","geoLocName":"Combaya","latitude":"-15.78333","longitude":"-68.76667","country":"BO"},{"geoLocId":"0003919715","geoLocName":"Colquiri","latitude":"-17.389179","longitude":"-67.126709","country":"BO"},{"geoLocId":"0003919720","geoLocName":"Colquechaca","latitude":"-18.70031","longitude":"-66.003967","country":"BO"},{"geoLocId":"0003919895","geoLocName":"Colcha","latitude":"-19.86623","longitude":"-67.137238","country":"BO"},{"geoLocId":"0003919927","geoLocName":"Coipasa","latitude":"-19.27706","longitude":"-68.27787","country":"BO"},{"geoLocId":"0003919998","geoLocName":"Cobija","latitude":"-11.02671","longitude":"-68.76918","country":"BO"},{"geoLocId":"0003920016","geoLocName":"Cliza","latitude":"-17.58777","longitude":"-65.932533","country":"BO"},{"geoLocId":"0003920238","geoLocName":"Chuma","latitude":"-15.48333","longitude":"-68.900002","country":"BO"},{"geoLocId":"0003920443","geoLocName":"Choquecota","latitude":"-18.25","longitude":"-67.949997","country":"BO"},{"geoLocId":"0003920659","geoLocName":"Chipaya","latitude":"-19.04188","longitude":"-68.089813","country":"BO"},{"geoLocId":"0003921028","geoLocName":"Chayanta","latitude":"-18.44857","longitude":"-66.461197","country":"BO"},{"geoLocId":"0003921141","geoLocName":"Charagua","latitude":"-19.79151","longitude":"-63.198639","country":"BO"},{"geoLocId":"0003921355","geoLocName":"Challapata","latitude":"-18.902081","longitude":"-66.770477","country":"BO"},{"geoLocId":"0003921356","geoLocName":"Challapata","latitude":"-15.88333","longitude":"-68.116669","country":"BO"},{"geoLocId":"0003921950","geoLocName":"Caripuyo","latitude":"-18.233179","longitude":"-66.47377","country":"BO"},{"geoLocId":"0003922011","geoLocName":"Carapari","latitude":"-21.828489","longitude":"-63.742809","country":"BO"},{"geoLocId":"0003922028","geoLocName":"Carangas","latitude":"-18.933331","longitude":"-68.616669","country":"BO"},{"geoLocId":"0003922037","geoLocName":"Caranavi","latitude":"-15.81667","longitude":"-67.550003","country":"BO"},{"geoLocId":"0003922125","geoLocName":"Capinota","latitude":"-17.71113","longitude":"-66.260818","country":"BO"},{"geoLocId":"0003922414","geoLocName":"Camiri","latitude":"-20.03849","longitude":"-63.51833","country":"BO"},{"geoLocId":"0003922451","geoLocName":"Camargo","latitude":"-20.64064","longitude":"-65.208931","country":"BO"},{"geoLocId":"0003922692","geoLocName":"Cajuata","latitude":"-16.816669","longitude":"-67.25","country":"BO"},{"geoLocId":"0003922722","geoLocName":"Caiza","latitude":"-20.00808","longitude":"-65.654129","country":"BO"},{"geoLocId":"0003922732","geoLocName":"Cairoma","latitude":"-16.9","longitude":"-67.550003","country":"BO"},{"geoLocId":"0003922878","geoLocName":"Cabezas","latitude":"-18.789249","longitude":"-63.300652","country":"BO"},{"geoLocId":"0003923015","geoLocName":"Boyuibe","latitude":"-20.43227","longitude":"-63.281471","country":"BO"},{"geoLocId":"0003923056","geoLocName":"Bolpebra","latitude":"-10.94894","longitude":"-69.56369","country":"BO"},{"geoLocId":"0003923061","geoLocName":"Bolivar","latitude":"-17.96933","longitude":"-66.537933","country":"BO"},{"geoLocId":"0003923222","geoLocName":"Bella Flor","latitude":"-11.14209","longitude":"-67.820503","country":"BO"},{"geoLocId":"0003923233","geoLocName":"Belen de Anamarca","latitude":"-18.819361","longitude":"-67.641037","country":"BO"},{"geoLocId":"0003923273","geoLocName":"Baures","latitude":"-13.58333","longitude":"-63.583328","country":"BO"},{"geoLocId":"0003923283","geoLocName":"Batallas","latitude":"-16.33333","longitude":"-68.5","country":"BO"},{"geoLocId":"0003923438","geoLocName":"Azurduy","latitude":"-20.106131","longitude":"-64.413979","country":"BO"},{"geoLocId":"0003923499","geoLocName":"Ayata","latitude":"-15.3408","longitude":"-68.752792","country":"BO"},{"geoLocId":"0003923506","geoLocName":"Ayacucho","latitude":"-17.85","longitude":"-63.333328","country":"BO"},{"geoLocId":"0003923547","geoLocName":"Aucapata","latitude":"-15.5","longitude":"-68.76667","country":"BO"},{"geoLocId":"0003923570","geoLocName":"Atocha","latitude":"-20.93515","longitude":"-66.22139","country":"BO"},{"geoLocId":"0003923682","geoLocName":"Arque","latitude":"-17.82214","longitude":"-66.40361","country":"BO"},{"geoLocId":"0003923753","geoLocName":"Arbieto","latitude":"-17.566669","longitude":"-66.01667","country":"BO"},{"geoLocId":"0003923772","geoLocName":"Arampampa","latitude":"-17.958611","longitude":"-66.094109","country":"BO"},{"geoLocId":"0003923800","geoLocName":"Apolo","latitude":"-14.7189","longitude":"-68.412292","country":"BO"},{"geoLocId":"0003923984","geoLocName":"Andamarca","latitude":"-18.779341","longitude":"-67.50753","country":"BO"},{"geoLocId":"0003923999","geoLocName":"Ancoraimes","latitude":"-16.169901","longitude":"-69.079193","country":"BO"},{"geoLocId":"0003924320","geoLocName":"Alalay","latitude":"-17.683331","longitude":"-65.683327","country":"BO"},{"geoLocId":"0003924627","geoLocName":"Acacio","latitude":"-18.024429","longitude":"-66.058228","country":"BO"},{"geoLocId":"0006300765","geoLocName":"Ascencion De Guarayos","latitude":"-15.93292","longitude":"-63.155399","country":"BO"},{"geoLocId":"0006621195","geoLocName":"Camargo","latitude":"-20.61503","longitude":"-65.192329","country":"BO"},{"geoLocId":"0006621196","geoLocName":"Camataqui (Villa Abecia)","latitude":"-20.99349","longitude":"-65.321091","country":"BO"},{"geoLocId":"0006621197","geoLocName":"Culpina","latitude":"-20.770149","longitude":"-64.679672","country":"BO"},{"geoLocId":"0006621198","geoLocName":"El Villar","latitude":"-19.714569","longitude":"-64.323059","country":"BO"},{"geoLocId":"0006621199","geoLocName":"Huacareta","latitude":"-20.36738","longitude":"-64.004211","country":"BO"},{"geoLocId":"0006621200","geoLocName":"Icla","latitude":"-19.457701","longitude":"-64.783577","country":"BO"},{"geoLocId":"0006621201","geoLocName":"Incahuasi","latitude":"-20.593941","longitude":"-65.019989","country":"BO"},{"geoLocId":"0006621202","geoLocName":"Las Carreras","latitude":"-21.28397","longitude":"-65.272148","country":"BO"},{"geoLocId":"0006621203","geoLocName":"Machareti","latitude":"-20.75485","longitude":"-63.2328","country":"BO"},{"geoLocId":"0006621204","geoLocName":"Mojocoya","latitude":"-18.822081","longitude":"-64.626747","country":"BO"},{"geoLocId":"0006621205","geoLocName":"Monteagudo","latitude":"-19.948851","longitude":"-64.061974","country":"BO"},{"geoLocId":"0006621206","geoLocName":"Padilla","latitude":"-19.722269","longitude":"-64.353462","country":"BO"},{"geoLocId":"0006621209","geoLocName":"San Lucas","latitude":"-20.15967","longitude":"-64.93116","country":"BO"},{"geoLocId":"0006621210","geoLocName":"Sopachuy","latitude":"-19.45101","longitude":"-64.528542","country":"BO"},{"geoLocId":"0006621212","geoLocName":"Tarabuco","latitude":"-19.15077","longitude":"-64.902588","country":"BO"},{"geoLocId":"0006621213","geoLocName":"Tarvita (Villa Orias)","latitude":"-19.76008","longitude":"-64.589981","country":"BO"},{"geoLocId":"0006621214","geoLocName":"Tomina","latitude":"-19.203461","longitude":"-64.523163","country":"BO"},{"geoLocId":"0006621215","geoLocName":"Villa Alcala","latitude":"-19.43321","longitude":"-64.374672","country":"BO"},{"geoLocId":"0006621216","geoLocName":"Villa Azurduy","latitude":"-20.09968","longitude":"-64.472504","country":"BO"},{"geoLocId":"0006621217","geoLocName":"Villa de Huacaya","latitude":"-20.48481","longitude":"-63.82822","country":"BO"},{"geoLocId":"0006621218","geoLocName":"Villa Serrano","latitude":"-19.027","longitude":"-64.305237","country":"BO"},{"geoLocId":"0006621219","geoLocName":"Villa Vaca Guzman (Muyupampa)","latitude":"-19.9655","longitude":"-63.780609","country":"BO"},{"geoLocId":"0006621220","geoLocName":"Villa Zudanez (Tacopaya)","latitude":"-19.16573","longitude":"-64.688751","country":"BO"},{"geoLocId":"0006621221","geoLocName":"Yamparaez","latitude":"-19.251459","longitude":"-65.077713","country":"BO"},{"geoLocId":"0006621267","geoLocName":"San Lucas","latitude":"-20.200359","longitude":"-64.983521","country":"BO"},{"geoLocId":"0007729790","geoLocName":"Bermejo","latitude":"-22.7325","longitude":"-64.342697","country":"BO"},{"geoLocId":"0007729804","geoLocName":"Vacas","latitude":"-17.56287","longitude":"-65.580833","country":"BO"},{"geoLocId":"0007729806","geoLocName":"Vila Vila","latitude":"-17.949961","longitude":"-65.604713","country":"BO"},{"geoLocId":"0007729844","geoLocName":"Curahuara De Carnagas Sajama","latitude":"-17.71294","longitude":"-68.418343","country":"BO"},{"geoLocId":"0007729852","geoLocName":"\"Colcha \"K\"","latitude":"-20.698931","longitude":"-67.318314","country":"BO"},{"geoLocId":"0007729853","geoLocName":"San Lorenzo","latitude":"-11.3747","longitude":"-66.816071","country":"BO"},{"geoLocId":"0007729855","geoLocName":"Sena","latitude":"-11.77565","longitude":"-67.279137","country":"BO"},{"geoLocId":"0007729856","geoLocName":"Santiago de Huari","latitude":"-19.28034","longitude":"-66.857262","country":"BO"}],"mjtheme":["Rural development","Social dev/gender/inclusion","Social dev/gender/inclusion","Urban development","Environment and natural resources management"],"themecode":"86,73,57,60,78","mjthemecode":"10,7,7,9,11","mjtheme_namecode":[{"name":"Rural development","code":"10"},{"name":"Social dev/gender/inclusion","code":"7"},{"name":"Social dev/gender/inclusion","code":"7"},{"name":"Urban development","code":"9"},{"name":"Environment and natural resources management","code":"11"}],"sector_namecode":[{"name":"Rural and Inter-Urban Roads and Highways","code":"TI"},{"name":"Irrigation and drainage","code":"AI"},{"name":"Sub-national government administration","code":"BH"},{"name":"Central government administration","code":"BC"},{"name":"General agriculture, fishing and forestry sector","code":"AZ"}],"theme_namecode":[{"name":"Rural services and infrastructure","code":"78"},{"name":"Indigenous peoples","code":"60"},{"name":"Participation and civic engagement","code":"57"},{"name":"Municipal governance and institution building","code":"73"},{"name":"Other environment and natural resources management","code":"86"}],"source":"IBRD","majorsector_percent":[{"Name":"Transportation","Percent":40},{"Name":"Agriculture, fishing, and forestry","Percent":30},{"Name":"Public Administration, Law, and Justice","Percent":15},{"Name":"Public Administration, Law, and Justice","Percent":10},{"Name":"Agriculture, fishing, and forestry","Percent":5}],"projectdocs":[{"DocTypeDesc":"Implementation Status and Results Report (ISRR),  Vol.1","DocType":"ISRR","EntityID":"090224b08240f244_1_0","DocURL":"http://www-wds.worldbank.org/servlet/WDSServlet?pcont=details&eid=090224b08240f244_1_0","DocDate":"26-APR-2014"},{"DocTypeDesc":"Implementation Status and Results Report (ISRR),  Vol.1","DocType":"ISRR","EntityID":"090224b081c4535b_1_0","DocURL":"http://www-wds.worldbank.org/servlet/WDSServlet?pcont=details&eid=090224b081c4535b_1_0","DocDate":"10-JUN-2013"},{"DocTypeDesc":"Implementation Status and Results Report (ISRR),  Vol.1","DocType":"ISRR","EntityID":"090224b081773055_1_0","DocURL":"http://www-wds.worldbank.org/servlet/WDSServlet?pcont=details&eid=090224b081773055_1_0","DocDate":"14-NOV-2012"},{"DocTypeDesc":"Agreement (AGR),  Vol.","DocType":"AGR","EntityID":"090224b08174975e_1_0","DocURL":"http://www-wds.worldbank.org/servlet/WDSServlet?pcont=details&eid=090224b08174975e_1_0","DocDate":"01-AUG-2012"},{"DocTypeDesc":"Project Paper (PJPR),  Vol.1","DocType":"PJPR","EntityID":"000333037_20120719234701","DocURL":"http://www-wds.worldbank.org/servlet/WDSServlet?pcont=details&eid=000333037_20120719234701","DocDate":"27-JUN-2012"},{"DocTypeDesc":"Integrated Safeguards Data Sheet (ISDS),  Vol.1","DocType":"ISDS","EntityID":"000001843_20120425162716","DocURL":"http://www-wds.worldbank.org/servlet/WDSServlet?pcont=details&eid=000001843_20120425162716","DocDate":"24-APR-2012"},{"DocTypeDesc":"Implementation Status and Results Report (ISRR),  Vol.1","DocType":"ISRR","EntityID":"0000A8056_2011081410354546","DocURL":"http://www-wds.worldbank.org/servlet/WDSServlet?pcont=details&eid=0000A8056_2011081410354546","DocDate":"14-AUG-2011"},{"DocTypeDesc":"Implementation Status and Results Report (ISRR),  Vol.1","DocType":"ISRR","EntityID":"0000A8056_2011022813552103","DocURL":"http://www-wds.worldbank.org/servlet/WDSServlet?pcont=details&eid=0000A8056_2011022813552103","DocDate":"28-FEB-2011"},{"DocTypeDesc":"Procurement Plan (PROP),  Vol.1","DocType":"PROP","EntityID":"000333037_20090527033932","DocURL":"http://www-wds.worldbank.org/servlet/WDSServlet?pcont=details&eid=000333037_20090527033932","DocDate":"26-MAY-2009"},{"DocTypeDesc":"Financing Agreement (FIA),  Vol.","DocType":"FIA","EntityID":"000021321_2010060810155533","DocURL":"http://www-wds.worldbank.org/servlet/WDSServlet?pcont=details&eid=000021321_2010060810155533","DocDate":"11-FEB-2008"},{"DocTypeDesc":"Project Appraisal Document (PAD),  Vol.1","DocType":"PAD","EntityID":"000020953_20071204101612","DocURL":"http://www-wds.worldbank.org/servlet/WDSServlet?pcont=details&eid=000020953_20071204101612","DocDate":"19-NOV-2007"},{"DocTypeDesc":"Integrated Safeguards Data Sheet (ISDS),  Vol.1","DocType":"ISDS","EntityID":"000310607_20080529121430","DocURL":"http://www-wds.worldbank.org/servlet/WDSServlet?pcont=details&eid=000310607_20080529121430","DocDate":"07-NOV-2007"},{"DocTypeDesc":"Integrated Safeguards Data Sheet (ISDS),  Vol.1","DocType":"ISDS","EntityID":"000076092_20071105100819","DocURL":"http://www-wds.worldbank.org/servlet/WDSServlet?pcont=details&eid=000076092_20071105100819","DocDate":"02-NOV-2007"},{"DocTypeDesc":"Project Information Document (PID),  Vol.1","DocType":"PID","EntityID":"000076092_20071107121854","DocURL":"http://www-wds.worldbank.org/servlet/WDSServlet?pcont=details&eid=000076092_20071107121854","DocDate":"24-OCT-2007"},{"DocTypeDesc":"Project Information Document (PID),  Vol.1","DocType":"PID","EntityID":"000104615_20070726094729","DocURL":"http://www-wds.worldbank.org/servlet/WDSServlet?pcont=details&eid=000104615_20070726094729","DocDate":"05-OCT-2007"},{"DocTypeDesc":"Indigenous Peoples Plan (IP),  Vol.1","DocType":"IP","EntityID":"000160016_20080922162924","DocURL":"http://www-wds.worldbank.org/servlet/WDSServlet?pcont=details&eid=000160016_20080922162924","DocDate":"28-SEP-2007"},{"DocTypeDesc":"Environmental Assessment (EA),  Vol.1","DocType":"EA","EntityID":"000011823_20071031145729","DocURL":"http://www-wds.worldbank.org/servlet/WDSServlet?pcont=details&eid=000011823_20071031145729","DocDate":"01-SEP-2007"},{"DocTypeDesc":"Integrated Safeguards Data Sheet (ISDS),  Vol.1","DocType":"ISDS","EntityID":"000104615_20070730094119","DocURL":"http://www-wds.worldbank.org/servlet/WDSServlet?pcont=details&eid=000104615_20070730094119","DocDate":"26-JUL-2007"}],"countryname":"Plurinational State of Bolivia"}},"facets":{}}