{"rows":10,"os":"0","page":"1","total":"1","projects":{"P102172":{"id":"P102172","projectfinancialtype":"IBRD","regionname":"Europe and Central Asia","prodline":"PE","lendinginstr":"Adaptable Program Loan","lendinginstrtype":"IN","envassesmentcategorycode":"C","supplementprojectflg":"N","productlinetype":"L","projectstatusdisplay":"Closed","status":"Closed","project_name":"Project in Support of Restructuring of Health Sector","board_approval_month":"June","approvalfy":"2009","boardapprovaldate":"2009-06-11T00:00:00Z","closingdate":"2015-09-30T00:00:00Z","lendprojectcost":"75,130,000","ibrdcommamt":"75,130,000","idacommamt":"0","totalamt":"75,130,000","grantamt":"0","borrower":"IIST","impagency":"IIST","url":"http://www.worldbank.org/projects/P102172/health-transformation-social-security-reform-project?lang=en","countryshortname":"Turkey","teamleaderupi":"103020","prodlinetext":"IBRD/IDA","keywords":{"cdata":"Accounting, administrative costs, administrative mechanisms, adverse selection, aging, Alcohol consumption, Allocative efficiency, behavior change, budget allocation, budgetary control, Burden of Disease, Cancer, capacity building, capitation, capitation payment, capitation payments, capitation system, chronic conditions, citizens, clinical guidelines, clinical indicators, communicable Diseases, Community Health, Competitive Bidding, contractual relationships, cost-effectiveness, CURRENCY, Current Account, debt, decision making, delivery system, delivery systems, developing countries, Development Objectives, Development Plans, Development Policy, diabetes, economic growth, economic policy, epidemiological transition, equity in access, Exchange Rate, expenditure control, external debt, externalities, families, fee-for-service, fee-for-service systems, Financial Management, financial protection, financial resources, financial sector, Fiscal policy, forecasts, global environment, Gross Domestic Product, Gross National Product, health care, health care facilities, health care system, Health Centers, health coverage, health delivery, health expenditure, health expenditures, health facilities, health financing, health informatics, health information, Health Information System, health information systems, Health Insurance, health insurance coverage, health insurance fund, health insurance funds, health insurance markets, health insurance regulation, health insurance schemes, health "},"project_abstract":{"cdata":"The objectives of the Health Transformation and Social Security Reform and Second Phase Adaptable Program Loan Project for Turkey are: (i) increasing the effectiveness of the Social Security Institution (SSI) and Ministry of Health (MOH) in formulating and implementing reforms in provider payments and health systems performance; and (ii) piloting output-based financing for non-communicable diseases (NCD) prevention and control. There are three components to the project. The first component of the project is support for MOH's strategic plan of 2010-2014. This component supports the implementation of the MOH strategic plan and has as its main objective converting the MOH into a health sector steward and completing health service delivery reforms. It will finance technical assistance/services, training and goods for eight program areas of the strategic plan with an emphasis on the implementation of family medicine, hospital reforms, public health and regulatory reforms and strengthening policy-making, priority-setting and monitoring and evaluation. The second component of the project is piloting output-based financing for Non-communicable Diseases (NCD) prevention and control. The objective of this component is to pilot test and evaluate a model for implementing interventions for NCD prevention and control at the provincial level using output-based financing mechanism. It consists of two sub-components: (i) output based financing for family medicine practices which will finance a positive incentive based system for providers to deliver a package of cost effective interventions for NCD prevention and control; and (ii) capacity building for provincial and central level implementation of output-based financing pilots. The third and the final component of the project is capacity building of the SSI. The objective of this component is to enhance the social security institutio"},"country_namecode":"Republic of Turkey!$!TR","sector1":{"Name":"Public administration- Health","Percent":78},"sector2":{"Name":"Health","Percent":17},"sector3":{"Name":"Compulsory health finance","Percent":5},"theme1":{"Name":"Health system performance","Percent":64},"theme2":{"Name":"Public expenditure, financial management and procurement","Percent":3},"theme3":{"Name":"Other communicable diseases","Percent":8},"theme4":{"Name":"Injuries and non-communicable diseases","Percent":13},"theme5":{"Name":"Administrative and civil service reform","Percent":12},"totalcommamt":"75,130,000","sector":[{"Name":"Public administration- Health"},{"Name":"Health"},{"Name":"Compulsory health finance"}],"docty":"Implementation Status and Results Report,Agreement,Project Paper,Implementation Status and Results Report,Implementation Status and Results Report,Agreement,Procurement Plan,Implementation Status and Results Report,Implementation Status and Results Report,Procurement Plan,Procurement Plan,Implementation Status and Results Report,Procurement Plan,Procurement Plan,Brief,Brief,Brief,Brief,Procurement Plan,Procurement Plan,Project Agreement,Loan Agreement,Loan Agreement,Project Appraisal Document,Integrated Safeguards Data Sheet,Integrated Safeguards Data Sheet,Integrated Safeguards Data Sheet,Project Information Document,Integrated Safeguards Data Sheet,Project Information Document","countrycode":"TR","sectorcode":"BK,JA,BQ","mjsector_namecode":[{"name":"Public Administration, Law, and Justice","code":"BX"},{"name":"Health and other social services","code":"JX"},{"name":"Public Administration, Law, and Justice","code":"BX"}],"locations":[{"geoLocId":"0000296560","geoLocName":"Yozgat","latitude":"39.583328","longitude":"35.333328","country":"TR"},{"geoLocId":"0000298113","geoLocName":"Van","latitude":"38.40736","longitude":"43.717789","country":"TR"},{"geoLocId":"0000298298","geoLocName":"U?ak","latitude":"38.5","longitude":"29.41667","country":"TR"},{"geoLocId":"0000298332","geoLocName":"?anl?urfa","latitude":"37.21283","longitude":"38.781738","country":"TR"},{"geoLocId":"0000298845","geoLocName":"Tunceli","latitude":"39.083328","longitude":"39.5","country":"TR"},{"geoLocId":"0000300617","geoLocName":"Sivas","latitude":"39.791649","longitude":"37.001949","country":"TR"},{"geoLocId":"0000300640","geoLocName":"??rnak","latitude":"37.513931","longitude":"42.454319","country":"TR"},{"geoLocId":"0000300821","geoLocName":"Siirt","latitude":"37.961521","longitude":"41.945801","country":"TR"},{"geoLocId":"0000303826","geoLocName":"Ni?de","latitude":"37.833328","longitude":"34.75","country":"TR"},{"geoLocId":"0000303830","geoLocName":"Nev?ehir","latitude":"38.916672","longitude":"34.666672","country":"TR"},{"geoLocId":"0000304041","geoLocName":"Mu?","latitude":"39","longitude":"41.75","country":"TR"},{"geoLocId":"0000304183","geoLocName":"Mu?la","latitude":"37.230331","longitude":"28.355709","country":"TR"},{"geoLocId":"0000304521","geoLocName":"Mersinli","latitude":"38.431629","longitude":"27.174641"},{"geoLocId":"0000304794","geoLocName":"Mardin","latitude":"37.317749","longitude":"40.715328","country":"TR"},{"geoLocId":"0000304825","geoLocName":"Manisa","latitude":"38.833328","longitude":"28.16667","country":"TR"},{"geoLocId":"0000304919","geoLocName":"Malatya","latitude":"38.5","longitude":"38","country":"TR"},{"geoLocId":"0000305267","geoLocName":"K\u00fctahya","latitude":"39.25","longitude":"29.5","country":"TR"},{"geoLocId":"0000306569","geoLocName":"Konya","latitude":"38.166672","longitude":"32.5","country":"TR"},{"geoLocId":"0000307513","geoLocName":"K?r?ehir","latitude":"39.333328","longitude":"34.166672","country":"TR"},{"geoLocId":"0000307654","geoLocName":"Kirikkale","latitude":"39.84528","longitude":"33.50639"},{"geoLocId":"0000307864","geoLocName":"Kilis","latitude":"36.71611","longitude":"37.115002"},{"geoLocId":"0000308463","geoLocName":"Kayseri","latitude":"38.73695","longitude":"35.49683","country":"TR"},{"geoLocId":"0000309527","geoLocName":"Karaman","latitude":"37.18111","longitude":"33.215"},{"geoLocId":"0000310858","geoLocName":"Kahramanmara?","latitude":"38","longitude":"37","country":"TR"},{"geoLocId":"0000311044","geoLocName":"?zmir","latitude":"38.462189","longitude":"27.092291","country":"TR"},{"geoLocId":"0000311071","geoLocName":"Isparta","latitude":"38","longitude":"31","country":"TR"},{"geoLocId":"0000311728","geoLocName":"","latitude":"36.862041","longitude":"34.650879"},{"geoLocId":"0000312394","geoLocName":"","latitude":"36.5","longitude":"36.25"},{"geoLocId":"0000312888","geoLocName":"","latitude":"37.583328","longitude":"44.166672"},{"geoLocId":"0000314829","geoLocName":"Gaziantep","latitude":"37.083328","longitude":"37.333328","country":"TR"},{"geoLocId":"0000314830","geoLocName":"","latitude":"37.059441","longitude":"37.3825"},{"geoLocId":"0000315201","geoLocName":"Eskisehir","latitude":"39.666672","longitude":"31.16667","country":"TR"},{"geoLocId":"0000315367","geoLocName":"Erzurum","latitude":"40","longitude":"41.5","country":"TR"},{"geoLocId":"0000315372","geoLocName":"","latitude":"39.75","longitude":"39.5"},{"geoLocId":"0000315807","geoLocName":"","latitude":"38.73695","longitude":"39.17725"},{"geoLocId":"0000316540","geoLocName":"Diyarbak?r","latitude":"37.961521","longitude":"40.23193","country":"TR"},{"geoLocId":"0000317106","geoLocName":"Denizli","latitude":"37.84016","longitude":"29.06982","country":"TR"},{"geoLocId":"0000318137","geoLocName":"Hakkari","latitude":"37.57444","longitude":"43.740829"},{"geoLocId":"0000320390","geoLocName":"Burdur","latitude":"37.5","longitude":"30","country":"TR"},{"geoLocId":"0000321022","geoLocName":"Bitlis","latitude":"38.34201","longitude":"42.391338","country":"TR"},{"geoLocId":"0000321079","geoLocName":"Bing\u00f6l","latitude":"39.083328","longitude":"40.833328","country":"TR"},{"geoLocId":"0000321122","geoLocName":"Bilecik","latitude":"40","longitude":"30.16667","country":"TR"},{"geoLocId":"0000321836","geoLocName":"Batman","latitude":"37.887379","longitude":"41.13221","country":"TR"},{"geoLocId":"0000322164","geoLocName":"Bal?kesir","latitude":"39.75","longitude":"28","country":"TR"},{"geoLocId":"0000322819","geoLocName":"Ayd?n","latitude":"37.75","longitude":"28","country":"TR"},{"geoLocId":"0000323776","geoLocName":"Antalya","latitude":"36.77409","longitude":"30.71777","country":"TR"},{"geoLocId":"0000323779","geoLocName":"Hatay","latitude":"36.206551","longitude":"36.157219"},{"geoLocId":"0000323784","geoLocName":"Ankara","latitude":"39.916672","longitude":"32.833328","country":"TR"},{"geoLocId":"0000324496","geoLocName":"Aksaray","latitude":"38.372551","longitude":"34.025372"},{"geoLocId":"0000325163","geoLocName":"A?r?","latitude":"39.666672","longitude":"43.166672","country":"TR"},{"geoLocId":"0000325302","geoLocName":"Afyonkarahisar","latitude":"38.75","longitude":"30.66667","country":"TR"},{"geoLocId":"0000325329","geoLocName":"Ad?yaman","latitude":"37.75","longitude":"38.25","country":"TR"},{"geoLocId":"0000325361","geoLocName":"Adana","latitude":"36.985001","longitude":"35.28809","country":"TR"},{"geoLocId":"0000443183","geoLocName":"Osmaniye","latitude":"37.235249","longitude":"36.24596","country":"TR"},{"geoLocId":"0000443184","geoLocName":"","latitude":"39.916672","longitude":"44"},{"geoLocId":"0000443185","geoLocName":"","latitude":"38.365028","longitude":"34.014198"},{"geoLocId":"0000443187","geoLocName":"","latitude":"37.083328","longitude":"33.25"},{"geoLocId":"0000443188","geoLocName":"","latitude":"39.833328","longitude":"33.75"},{"geoLocId":"0000443213","geoLocName":"","latitude":"36.73","longitude":"37.139999"},{"geoLocId":"0000737021","geoLocName":"Zonguldak","latitude":"41.25","longitude":"31.83333","country":"TR"},{"geoLocId":"0000738647","geoLocName":"Trabzon","latitude":"40.869461","longitude":"39.81255","country":"TR"},{"geoLocId":"0000738742","geoLocName":"Tokat","latitude":"40.416672","longitude":"36.583328","country":"TR"},{"geoLocId":"0000738926","geoLocName":"Tekirda?","latitude":"41","longitude":"27.5","country":"TR"},{"geoLocId":"0000739598","geoLocName":"Sinop","latitude":"41.771061","longitude":"34.870949","country":"TR"},{"geoLocId":"0000740263","geoLocName":"Samsun","latitude":"41.25","longitude":"36.333328","country":"TR"},{"geoLocId":"0000740352","geoLocName":"Sakarya","latitude":"40.75","longitude":"30.58333","country":"TR"},{"geoLocId":"0000740481","geoLocName":"Rize","latitude":"40.90443","longitude":"40.89489","country":"TR"},{"geoLocId":"0000741098","geoLocName":"Ordu","latitude":"40.908581","longitude":"37.684479","country":"TR"},{"geoLocId":"0000742865","geoLocName":"Kocaeli","latitude":"40.916672","longitude":"29.91667","country":"TR"},{"geoLocId":"0000743165","geoLocName":"K?rklareli","latitude":"41.666672","longitude":"27.5","country":"TR"},{"geoLocId":"0000743881","geoLocName":"Kastamonu","latitude":"41.5","longitude":"33.666672","country":"TR"},{"geoLocId":"0000743942","geoLocName":"Kars","latitude":"40.416672","longitude":"43.083328","country":"TR"},{"geoLocId":"0000745042","geoLocName":"?stanbul","latitude":"41.03508","longitude":"28.983311","country":"TR"},{"geoLocId":"0000746423","geoLocName":"G\u00fcm\u00fc?hane","latitude":"40.25","longitude":"39.583328","country":"TR"},{"geoLocId":"0000746878","geoLocName":"Giresun","latitude":"40.5","longitude":"38.5","country":"TR"},{"geoLocId":"0000747711","geoLocName":"Edirne","latitude":"41.25","longitude":"26.66667","country":"TR"},{"geoLocId":"0000748877","geoLocName":"\u00c7orum","latitude":"40.5","longitude":"34.75","country":"TR"},{"geoLocId":"0000749747","geoLocName":"\u00c7ank?r?","latitude":"40.666672","longitude":"33.416672","country":"TR"},{"geoLocId":"0000749778","geoLocName":"\u00c7anakkale","latitude":"40.083328","longitude":"26.83333","country":"TR"},{"geoLocId":"0000750268","geoLocName":"Bursa","latitude":"40.166672","longitude":"29.08333","country":"TR"},{"geoLocId":"0000750510","geoLocName":"Bolu","latitude":"40.641312","longitude":"31.582161","country":"TR"},{"geoLocId":"0000751816","geoLocName":"Artvin","latitude":"41.166672","longitude":"41.833328","country":"TR"},{"geoLocId":"0000752014","geoLocName":"Amasya","latitude":"40.726189","longitude":"35.8867","country":"TR"},{"geoLocId":"0000862467","geoLocName":"Bart?n","latitude":"41.583328","longitude":"32.5","country":"TR"},{"geoLocId":"0000862468","geoLocName":"Karab\u00fck","latitude":"41.25","longitude":"32.5","country":"TR"},{"geoLocId":"0000862469","geoLocName":"Yalova","latitude":"40.583328","longitude":"29.16667","country":"TR"},{"geoLocId":"0000862470","geoLocName":"Ardahan","latitude":"41.083328","longitude":"42.833328","country":"TR"},{"geoLocId":"0000862471","geoLocName":"Bayburt","latitude":"40.25","longitude":"40.25","country":"TR"},{"geoLocId":"0000865521","geoLocName":"D\u00fczce","latitude":"40.833328","longitude":"31.16667","country":"TR"},{"geoLocId":"0008140622","geoLocName":"Igdir","latitude":"40.908958","longitude":"30.939939"}],"mjtheme":["Human development","Public sector governance","Human development","Human development","Public sector governance"],"ccsa_practice_code":"PPP","themecode":"25,89,64,27,67","combined_practice_name":"Public Private Partnership","mjthemecode":"8,2,8,8,2","mjtheme_namecode":[{"name":"Human development","code":"8"},{"name":"Public sector governance","code":"2"},{"name":"Human development","code":"8"},{"name":"Human development","code":"8"},{"name":"Public sector governance","code":"2"}],"sector_namecode":[{"name":"Public administration- Health","code":"BQ"},{"name":"Health","code":"JA"},{"name":"Compulsory health finance","code":"BK"}],"theme_namecode":[{"name":"Health system performance","code":"67"},{"name":"Public expenditure, financial management and procurement","code":"27"},{"name":"Other communicable diseases","code":"64"},{"name":"Injuries and non-communicable diseases","code":"89"},{"name":"Administrative and civil service reform","code":"25"}],"source":"IBRD","combined_practice_code":"PPP","majorsector_percent":[{"Name":"Public Administration, Law, and Justice","Percent":78},{"Name":"Health and other social services","Percent":17},{"Name":"Public Administration, Law, and Justice","Percent":5}],"projectdocs":[{"DocTypeDesc":"Implementation Status and Results Report (ISRR),  Vol.1","DocType":"ISRR","EntityID":"090224b08253f8a0_1_0","DocURL":"http://www-wds.worldbank.org/servlet/WDSServlet?pcont=details&eid=090224b08253f8a0_1_0","DocDate":"28-JUN-2014"},{"DocTypeDesc":"Agreement (AGR),  Vol.","DocType":"AGR","EntityID":"090224b08254cfb4_1_0","DocURL":"http://www-wds.worldbank.org/servlet/WDSServlet?pcont=details&eid=090224b08254cfb4_1_0","DocDate":"24-JAN-2014"},{"DocTypeDesc":"Project Paper (PJPR),  Vol.1","DocType":"PJPR","EntityID":"000333037_20140110131356","DocURL":"http://www-wds.worldbank.org/servlet/WDSServlet?pcont=details&eid=000333037_20140110131356","DocDate":"05-DEC-2013"},{"DocTypeDesc":"Implementation Status and Results Report (ISRR),  Vol.1","DocType":"ISRR","EntityID":"090224b0820f51a8_1_0","DocURL":"http://www-wds.worldbank.org/servlet/WDSServlet?pcont=details&eid=090224b0820f51a8_1_0","DocDate":"04-DEC-2013"},{"DocTypeDesc":"Implementation Status and Results Report (ISRR),  Vol.1","DocType":"ISRR","EntityID":"090224b081a32f29_1_0","DocURL":"http://www-wds.worldbank.org/servlet/WDSServlet?pcont=details&eid=090224b081a32f29_1_0","DocDate":"31-MAR-2013"},{"DocTypeDesc":"Agreement (AGR),  Vol.","DocType":"AGR","EntityID":"090224b081c60311_1_0","DocURL":"http://www-wds.worldbank.org/servlet/WDSServlet?pcont=details&eid=090224b081c60311_1_0","DocDate":"29-MAR-2013"},{"DocTypeDesc":"Procurement Plan (PROP),  Vol.1","DocType":"PROP","EntityID":"000333038_20121108001732","DocURL":"http://www-wds.worldbank.org/servlet/WDSServlet?pcont=details&eid=000333038_20121108001732","DocDate":"01-NOV-2012"},{"DocTypeDesc":"Implementation Status and Results Report (ISRR),  Vol.1","DocType":"ISRR","EntityID":"0000A8056_2012101518273468","DocURL":"http://www-wds.worldbank.org/servlet/WDSServlet?pcont=details&eid=0000A8056_2012101518273468","DocDate":"15-OCT-2012"},{"DocTypeDesc":"Implementation Status and Results Report (ISRR),  Vol.1","DocType":"ISRR","EntityID":"0000A8056_2012011608401133","DocURL":"http://www-wds.worldbank.org/servlet/WDSServlet?pcont=details&eid=0000A8056_2012011608401133","DocDate":"16-JAN-2012"},{"DocTypeDesc":"Procurement Plan (PROP),  Vol.1","DocType":"PROP","EntityID":"000386194_20120620020103","DocURL":"http://www-wds.worldbank.org/servlet/WDSServlet?pcont=details&eid=000386194_20120620020103","DocDate":"01-JAN-2012"},{"DocTypeDesc":"Procurement Plan (PROP),  Vol.1","DocType":"PROP","EntityID":"000333038_20111005023801","DocURL":"http://www-wds.worldbank.org/servlet/WDSServlet?pcont=details&eid=000333038_20111005023801","DocDate":"01-AUG-2011"},{"DocTypeDesc":"Implementation Status and Results Report (ISRR),  Vol.1","DocType":"ISRR","EntityID":"0000A8056_2011070511280882","DocURL":"http://www-wds.worldbank.org/servlet/WDSServlet?pcont=details&eid=0000A8056_2011070511280882","DocDate":"05-JUL-2011"},{"DocTypeDesc":"Procurement Plan (PROP),  Vol.1","DocType":"PROP","EntityID":"000356161_20110816011713","DocURL":"http://www-wds.worldbank.org/servlet/WDSServlet?pcont=details&eid=000356161_20110816011713","DocDate":"01-JAN-2011"},{"DocTypeDesc":"Procurement Plan (PROP),  Vol.1","DocType":"PROP","EntityID":"000333038_20100629021016","DocURL":"http://www-wds.worldbank.org/servlet/WDSServlet?pcont=details&eid=000333038_20100629021016","DocDate":"07-JUN-2010"},{"DocTypeDesc":"Brief (BRI),  Vol.1","DocType":"BRI","EntityID":"000333037_20150105002017","DocURL":"http://www-wds.worldbank.org/servlet/WDSServlet?pcont=details&eid=000333037_20150105002017","DocDate":"01-APR-2010"},{"DocTypeDesc":"Brief (BRI),  Vol.1","DocType":"BRI","EntityID":"000333037_20150104235703","DocURL":"http://www-wds.worldbank.org/servlet/WDSServlet?pcont=details&eid=000333037_20150104235703","DocDate":"01-APR-2010"},{"DocTypeDesc":"Brief (BRI),  Vol.1","DocType":"BRI","EntityID":"000333037_20150104235250","DocURL":"http://www-wds.worldbank.org/servlet/WDSServlet?pcont=details&eid=000333037_20150104235250","DocDate":"01-APR-2010"},{"DocTypeDesc":"Brief (BRI),  Vol.1","DocType":"BRI","EntityID":"000333037_20150105000306","DocURL":"http://www-wds.worldbank.org/servlet/WDSServlet?pcont=details&eid=000333037_20150105000306","DocDate":"01-APR-2010"},{"DocTypeDesc":"Procurement Plan (PROP),  Vol.1","DocType":"PROP","EntityID":"000333038_20100629022137","DocURL":"http://www-wds.worldbank.org/servlet/WDSServlet?pcont=details&eid=000333038_20100629022137","DocDate":"25-NOV-2009"},{"DocTypeDesc":"Procurement Plan (PROP),  Vol.1","DocType":"PROP","EntityID":"000350881_20111005124018","DocURL":"http://www-wds.worldbank.org/servlet/WDSServlet?pcont=details&eid=000350881_20111005124018","DocDate":"11-NOV-2009"},{"DocTypeDesc":"Project Agreement (PRA),  Vol.","DocType":"PRA","EntityID":"000014464_2010042011131751","DocURL":"http://www-wds.worldbank.org/servlet/WDSServlet?pcont=details&eid=000014464_2010042011131751","DocDate":"30-JUN-2009"},{"DocTypeDesc":"Loan Agreement (LA),  Vol.","DocType":"LA","EntityID":"000014464_2009112411415432","DocURL":"http://www-wds.worldbank.org/servlet/WDSServlet?pcont=details&eid=000014464_2009112411415432","DocDate":"30-JUN-2009"},{"DocTypeDesc":"Loan Agreement (),  Vol.","DocType":"000014464_2009112411415432","EntityID":"http://www-wds.worldbank.org/servlet/WDSServlet?pcont=details&eid=000014464_2009112411415432","DocURL":"30-JUN-2009"},{"DocTypeDesc":"Project Appraisal Document (PAD),  Vol.1","DocType":"PAD","EntityID":"000334955_20090601050258","DocURL":"http://www-wds.worldbank.org/servlet/WDSServlet?pcont=details&eid=000334955_20090601050258","DocDate":"18-MAY-2009"},{"DocTypeDesc":"Integrated Safeguards Data Sheet (ISDS),  Vol.1","DocType":"ISDS","EntityID":"000333038_20090521012903","DocURL":"http://www-wds.worldbank.org/servlet/WDSServlet?pcont=details&eid=000333038_20090521012903","DocDate":"15-MAY-2009"},{"DocTypeDesc":"Integrated Safeguards Data Sheet (ISDS),  Vol.1","DocType":"ISDS","EntityID":"000333038_20090326005559","DocURL":"http://www-wds.worldbank.org/servlet/WDSServlet?pcont=details&eid=000333038_20090326005559","DocDate":"19-MAR-2009"},{"DocTypeDesc":"Integrated Safeguards Data Sheet (ISDS),  Vol.1","DocType":"ISDS","EntityID":"000104615_20081119110724","DocURL":"http://www-wds.worldbank.org/servlet/WDSServlet?pcont=details&eid=000104615_20081119110724","DocDate":"18-NOV-2008"},{"DocTypeDesc":"Project Information Document (PID),  Vol.1","DocType":"PID","EntityID":"000104615_20081113095125","DocURL":"http://www-wds.worldbank.org/servlet/WDSServlet?pcont=details&eid=000104615_20081113095125","DocDate":"12-NOV-2008"},{"DocTypeDesc":"Integrated Safeguards Data Sheet (ISDS),  Vol.1","DocType":"ISDS","EntityID":"000076092_20080617171454","DocURL":"http://www-wds.worldbank.org/servlet/WDSServlet?pcont=details&eid=000076092_20080617171454","DocDate":"17-JUN-2008"},{"DocTypeDesc":"Project Information Document (PID),  Vol.1","DocType":"PID","EntityID":"000076092_20080513113813","DocURL":"http://www-wds.worldbank.org/servlet/WDSServlet?pcont=details&eid=000076092_20080513113813","DocDate":"28-APR-2008"}],"countryname":"Republic of Turkey","ccsa_practice_name":"Public Private Partnership"}},"facets":{}}