{"rows":10,"os":"0","page":"1","total":"1","projects":{"P103441":{"id":"P103441","projectfinancialtype":"IBRD","regionname":"Latin America and Caribbean","prodline":"PE","lendinginstr":"Technical Assistance Loan","lendinginstrtype":"IN","envassesmentcategorycode":"C","supplementprojectflg":"N","productlinetype":"L","projectstatusdisplay":"Closed","status":"Closed","project_name":"Second Public Expenditure Management","board_approval_month":"August","approvalfy":"2008","boardapprovaldate":"2007-08-28T00:00:00Z","closingdate":"2014-06-30T00:00:00Z","lendprojectcost":"24,800,000","ibrdcommamt":"24,800,000","idacommamt":"0","totalamt":"24,800,000","grantamt":"0","borrower":"EET","impagency":"IIST","url":"http://www.worldbank.org/projects/P103441/second-public-expenditure-management?lang=en","countryshortname":"Chile","teamleaderupi":"81070","prodlinetext":"IBRD/IDA","keywords":{"cdata":"Borrower, Budget Administration, Budget Directorate, budget execution, budget formulation, Currency, Disbursements, financial administration, Financial Management, Financial Management System, ID, legal agreement, Lending Instrument, LOAN, loan amount, Ministry of Finance, Municipal Financial Management, municipal level, performance issues, PUBLIC EXPENDITURE, PUBLIC EXPENDITURE MANAGEMENT, PUBLIC SECTOR, subnational, Technical Assistance, technical support, transparency"},"project_abstract":{"cdata":"The objective of the Second Public Expenditure Management Project for Chile is to increase the efficiency of operations regarding financial management, budget formulation, and budget execution, and the transparency of public expenditure management at the central and municipal level through the implementation of an updated, functionally enhanced and expanded financial administration system (SIGFE). This paper pertains to a restructuring of the project with the intent of extending the loan closing date by a year to June 30, 2014. The extension is felt to be necessary to complete the implementation of the financial management system in the originally targeted institutions."},"country_namecode":"Republic of Chile!$!CL","projectinfo":"<![CDATA[<Project><LangCode>ES</LangCode><ProjectName>Segundo proyecto de gesti\u00f3n del gasto p\u00fablico</ProjectName><ProjectAbstract>El Segundo proyecto de gesti\u00f3n del gasto p\u00fablico de Chile tiene como meta incrementar la eficiencia de las operaciones con respecto a la gesti\u00f3n financiera, la formulaci\u00f3n y la ejecuci\u00f3n del presupuesto, y la transparencia de la gesti\u00f3n del gasto p\u00fablico a nivel central y municipal en Chile, a trav\u00e9s del Sistema de Informaci\u00f3n para la Gesti\u00f3n Financiera del Estado (SIGFE), un sistema actualizado y mejorado para una mayor funcionalidad. El proyecto incluye los componentes siguientes: mejora y ampliaci\u00f3n del Sistema de Informaci\u00f3n Financiera a las entidades del gobierno central; mejora de los procesos presupuestarios y de los mecanismos del Sistema de Control de la Administraci\u00f3n; fortalecimiento de la administraci\u00f3n financiera en la municipalidad, y gesti\u00f3n del proyecto.</ProjectAbstract></Project>]]>","sector1":{"Name":"Central government administration","Percent":88},"sector2":{"Name":"Sub-national government administration","Percent":12},"theme1":{"Name":"Public expenditure, financial management and procurement","Percent":40},"theme2":{"Name":"Debt management and fiscal sustainability","Percent":20},"theme3":{"Name":"Decentralization","Percent":20},"theme4":{"Name":"Municipal finance","Percent":20},"totalcommamt":"24,800,000","sector":[{"Name":"Central government administration"},{"Name":"Sub-national government administration"}],"docty":"Implementation Status and Results Report,Implementation Status and Results Report,Implementation Status and Results Report,Implementation Status and Results Report,Loan Agreement,Implementation Status and Results Report,Project Paper,Project Paper,Implementation Status and Results Report,Implementation Status and Results Report,Implementation Status and Results Report,Loan Agreement,Loan Agreement,Project Appraisal Document,Integrated Safeguards Data Sheet,Project Information Document","countrycode":"CL","sectorcode":"BH,BC","mjsector_namecode":[{"name":"Public Administration, Law, and Justice","code":"BX"},{"name":"Public Administration, Law, and Justice","code":"BX"}],"locations":[{"geoLocId":"0003868626","geoLocName":"Valpara\u00edso","latitude":"-33.039322","longitude":"-71.627251","country":"CL"},{"geoLocId":"0003868707","geoLocName":"Valdivia","latitude":"-39.81422","longitude":"-73.245888","country":"CL"},{"geoLocId":"0003868829","geoLocName":"Provincia de \u00daltima Esperanza","latitude":"-50.75","longitude":"-74","country":"CL"},{"geoLocId":"0003869716","geoLocName":"Tocopilla","latitude":"-22.09198","longitude":"-70.197922","country":"CL"},{"geoLocId":"0003869875","geoLocName":"Provincia de Tierra del Fuego","latitude":"-54.333328","longitude":"-69.5","country":"CL"},{"geoLocId":"0003870228","geoLocName":"Tamarugal","latitude":"-20.133329","longitude":"-69.633331","country":"CL"},{"geoLocId":"0003870294","geoLocName":"Talca","latitude":"-35.426399","longitude":"-71.655418","country":"CL"},{"geoLocId":"0003870306","geoLocName":"Talagante","latitude":"-33.66386","longitude":"-70.927338","country":"CL"},{"geoLocId":"0003872255","geoLocName":"San Felipe","latitude":"-32.74976","longitude":"-70.725838","country":"CL"},{"geoLocId":"0003872395","geoLocName":"San Antonio","latitude":"-33.59473","longitude":"-71.60746","country":"CL"},{"geoLocId":"0003874119","geoLocName":"Quillota","latitude":"-32.883411","longitude":"-71.248817","country":"CL"},{"geoLocId":"0003876415","geoLocName":"Petorca Province","latitude":"-32.333328","longitude":"-71","country":"CL"},{"geoLocId":"0003877171","geoLocName":"Parinacota","latitude":"-18.20192","longitude":"-69.268669","country":"CL"},{"geoLocId":"0003877949","geoLocName":"Osorno","latitude":"-40.573952","longitude":"-73.133476","country":"CL"},{"geoLocId":"0003878472","geoLocName":"Provincia de \u00d1uble","latitude":"-36.583328","longitude":"-72","country":"CL"},{"geoLocId":"0003880107","geoLocName":"Melipilla","latitude":"-33.689091","longitude":"-71.215279","country":"CL"},{"geoLocId":"0003880842","geoLocName":"Provincia de Malleco","latitude":"-38.25","longitude":"-72","country":"CL"},{"geoLocId":"0003880987","geoLocName":"Provincia de Maipo","latitude":"-33.833328","longitude":"-70.75","country":"CL"},{"geoLocId":"0003881037","geoLocName":"Provincia de Magallanes","latitude":"-52.916672","longitude":"-71.083328","country":"CL"},{"geoLocId":"0003882434","geoLocName":"Los Andes","latitude":"-32.833691","longitude":"-70.598267","country":"CL"},{"geoLocId":"0003882955","geoLocName":"Provincia de Llanquihue","latitude":"-41.5","longitude":"-73.083328","country":"CL"},{"geoLocId":"0003883167","geoLocName":"Linares","latitude":"-35.846668","longitude":"-71.593079","country":"CL"},{"geoLocId":"0003887127","geoLocName":"Iquique","latitude":"-20.22036","longitude":"-70.13913","country":"CL"},{"geoLocId":"0003889024","geoLocName":"Provincia General Carrera","latitude":"-46.63435","longitude":"-72.314758","country":"CL"},{"geoLocId":"0003890620","geoLocName":"Provincia de Elqui","latitude":"-29.5","longitude":"-70.666672","country":"CL"},{"geoLocId":"0003891150","geoLocName":"Aer\u00f3dromo El Loa","latitude":"-22.49662","longitude":"-68.908569","country":"CL"},{"geoLocId":"0003892870","geoLocName":"Curic\u00f3","latitude":"-34.982792","longitude":"-71.239433","country":"CL"},{"geoLocId":"0003893623","geoLocName":"Coquimbo","latitude":"-30.75","longitude":"-71","country":"CL"},{"geoLocId":"0003893656","geoLocName":"Copiap\u00f3","latitude":"-27.366791","longitude":"-70.331398","country":"CL"},{"geoLocId":"0003893894","geoLocName":"Concepci\u00f3n","latitude":"-36.826988","longitude":"-73.049767","country":"CL"},{"geoLocId":"0003894310","geoLocName":"Provincia de Colchagua","latitude":"-34.666672","longitude":"-71.583328","country":"CL"},{"geoLocId":"0003894426","geoLocName":"Coihaique","latitude":"-45.575241","longitude":"-72.066193","country":"CL"},{"geoLocId":"0003894914","geoLocName":"Provincia de Choapa","latitude":"-31.66667","longitude":"-71","country":"CL"},{"geoLocId":"0003895070","geoLocName":"Provincia de Chilo\u00e9","latitude":"-42.74028","longitude":"-73.985283","country":"CL"},{"geoLocId":"0003895554","geoLocName":"Cha\u00f1aral","latitude":"-26.342979","longitude":"-70.616478","country":"CL"},{"geoLocId":"0003896095","geoLocName":"Provincia de Caut\u00edn","latitude":"-39","longitude":"-72.416672","country":"CL"},{"geoLocId":"0003896105","geoLocName":"Cauquenes","latitude":"-35.967098","longitude":"-72.322479","country":"CL"},{"geoLocId":"0003896832","geoLocName":"Provincia Capit\u00e1n Prat","latitude":"-48","longitude":"-73.833328","country":"CL"},{"geoLocId":"0003897525","geoLocName":"Provincia de Cachapoal","latitude":"-34.333328","longitude":"-70.833328","country":"CL"},{"geoLocId":"0003898381","geoLocName":"Provincia de Biob\u00edo","latitude":"-37.5","longitude":"-71.916672","country":"CL"},{"geoLocId":"0003899361","geoLocName":"Arica","latitude":"-18.4746","longitude":"-70.29792","country":"CL"},{"geoLocId":"0003899462","geoLocName":"Arauco","latitude":"-37.2463","longitude":"-73.31752","country":"CL"},{"geoLocId":"0003899539","geoLocName":"Antofagasta","latitude":"-23.652361","longitude":"-70.395401","country":"CL"},{"geoLocId":"0003900333","geoLocName":"Ays\u00e9n","latitude":"-46.5","longitude":"-73.5","country":"CL"},{"geoLocId":"0004030752","geoLocName":"Provincia de Isla de Pascua","latitude":"-27","longitude":"-107.5","country":"CL"},{"geoLocId":"0004036651","geoLocName":"Provincia Ant\u00e1rtica Chilena","latitude":"-54.966099","longitude":"-70.011528","country":"CL"},{"geoLocId":"0006693564","geoLocName":"Provincia del Ranco","latitude":"-40.13689","longitude":"-72.37793","country":"CL"},{"geoLocId":"0008181711","geoLocName":"Provincia de Marga Marga","latitude":"-33.043781","longitude":"-71.394653","country":"CL"},{"geoLocId":"0008181712","geoLocName":"Provincia de Cardenal Caro","latitude":"-34.386509","longitude":"-71.945","country":"CL"},{"geoLocId":"0008181714","geoLocName":"Provincia de Palena","latitude":"-43.162121","longitude":"-72.47818","country":"CL"},{"geoLocId":"0008181716","geoLocName":"Provincia de Cordillera","latitude":"-33.679211","longitude":"-70.546654","country":"CL"},{"geoLocId":"0008181717","geoLocName":"Provincia de Chacabuco","latitude":"-33.159401","longitude":"-70.816498","country":"CL"},{"geoLocId":"0008261131","geoLocName":"Huasco","latitude":"-28.258421","longitude":"-71.017776","country":"CL"},{"geoLocId":"0008261395","geoLocName":"Santiago","latitude":"-33.45406","longitude":"-70.655991","country":"CL"}],"mjtheme":["Public sector governance","Economic management","Public sector governance","Urban development"],"themecode":"72,26,21,27","mjthemecode":"2,1,2,9","mjtheme_namecode":[{"name":"Public sector governance","code":"2"},{"name":"Economic management","code":"1"},{"name":"Public sector governance","code":"2"},{"name":"Urban development","code":"9"}],"sector_namecode":[{"name":"Central government administration","code":"BC"},{"name":"Sub-national government administration","code":"BH"}],"theme_namecode":[{"name":"Public expenditure, financial management and procurement","code":"27"},{"name":"Debt management and fiscal sustainability","code":"21"},{"name":"Decentralization","code":"26"},{"name":"Municipal finance","code":"72"}],"source":"IBRD","majorsector_percent":[{"Name":"Public Administration, Law, and Justice","Percent":88},{"Name":"Public Administration, Law, and Justice","Percent":12}],"projectdocs":[{"DocTypeDesc":"Implementation Status and Results Report (ISRR),  Vol.1","DocType":"ISRR","EntityID":"090224b08254001e_1_0","DocURL":"http://www-wds.worldbank.org/servlet/WDSServlet?pcont=details&eid=090224b08254001e_1_0","DocDate":"28-JUN-2014"},{"DocTypeDesc":"Implementation Status and Results Report (ISRR),  Vol.1","DocType":"ISRR","EntityID":"090224b082165b1c_1_0","DocURL":"http://www-wds.worldbank.org/servlet/WDSServlet?pcont=details&eid=090224b082165b1c_1_0","DocDate":"21-DEC-2013"},{"DocTypeDesc":"Implementation Status and Results Report (ISRR),  Vol.1","DocType":"ISRR","EntityID":"090224b081c9be35_1_0","DocURL":"http://www-wds.worldbank.org/servlet/WDSServlet?pcont=details&eid=090224b081c9be35_1_0","DocDate":"22-JUN-2013"},{"DocTypeDesc":"Implementation Status and Results Report (ISRR),  Vol.1","DocType":"ISRR","EntityID":"090224b0817b16ea_1_0","DocURL":"http://www-wds.worldbank.org/servlet/WDSServlet?pcont=details&eid=090224b0817b16ea_1_0","DocDate":"27-NOV-2012"},{"DocTypeDesc":"Loan Agreement (LA),  Vol.","DocType":"LA","EntityID":"090224b0818d0571_1_0","DocURL":"http://www-wds.worldbank.org/servlet/WDSServlet?pcont=details&eid=090224b0818d0571_1_0","DocDate":"31-JUL-2012"},{"DocTypeDesc":"Implementation Status and Results Report (ISRR),  Vol.1","DocType":"ISRR","EntityID":"0000A8056_2012042818073022","DocURL":"http://www-wds.worldbank.org/servlet/WDSServlet?pcont=details&eid=0000A8056_2012042818073022","DocDate":"28-APR-2012"},{"DocTypeDesc":"Project Paper (PJPR),  Vol.2","DocType":"PJPR","EntityID":"000333038_20120309000020","DocURL":"http://www-wds.worldbank.org/servlet/WDSServlet?pcont=details&eid=000333038_20120309000020","DocDate":"05-MAR-2012"},{"DocTypeDesc":"Project Paper (PJPR),  Vol.1","DocType":"PJPR","EntityID":"000333038_20120308235543","DocURL":"http://www-wds.worldbank.org/servlet/WDSServlet?pcont=details&eid=000333038_20120308235543","DocDate":"05-MAR-2012"},{"DocTypeDesc":"Implementation Status and Results Report (ISRR),  Vol.1","DocType":"ISRR","EntityID":"0000A8056_2011122813232678","DocURL":"http://www-wds.worldbank.org/servlet/WDSServlet?pcont=details&eid=0000A8056_2011122813232678","DocDate":"28-DEC-2011"},{"DocTypeDesc":"Implementation Status and Results Report (ISRR),  Vol.1","DocType":"ISRR","EntityID":"0000A8056_2011062012370766","DocURL":"http://www-wds.worldbank.org/servlet/WDSServlet?pcont=details&eid=0000A8056_2011062012370766","DocDate":"20-JUN-2011"},{"DocTypeDesc":"Implementation Status and Results Report (ISRR),  Vol.1","DocType":"ISRR","EntityID":"0000A8056_2011010804164042","DocURL":"http://www-wds.worldbank.org/servlet/WDSServlet?pcont=details&eid=0000A8056_2011010804164042","DocDate":"08-JAN-2011"},{"DocTypeDesc":"Loan Agreement (LA),  Vol.","DocType":"LA","EntityID":"000021321_2008040111550695","DocURL":"http://www-wds.worldbank.org/servlet/WDSServlet?pcont=details&eid=000021321_2008040111550695","DocDate":"29-NOV-2007"},{"DocTypeDesc":"Loan Agreement (),  Vol.","DocType":"000021321_2008040111550695","EntityID":"http://www-wds.worldbank.org/servlet/WDSServlet?pcont=details&eid=000021321_2008040111550695","DocURL":"29-NOV-2007"},{"DocTypeDesc":"Project Appraisal Document (PAD),  Vol.1","DocType":"PAD","EntityID":"000310607_20070809091032","DocURL":"http://www-wds.worldbank.org/servlet/WDSServlet?pcont=details&eid=000310607_20070809091032","DocDate":"03-AUG-2007"},{"DocTypeDesc":"Integrated Safeguards Data Sheet (ISDS),  Vol.1","DocType":"ISDS","EntityID":"000104615_20070119151235","DocURL":"http://www-wds.worldbank.org/servlet/WDSServlet?pcont=details&eid=000104615_20070119151235","DocDate":"19-JAN-2007"},{"DocTypeDesc":"Project Information Document (PID),  Vol.1","DocType":"PID","EntityID":"000104615_20070116094322","DocURL":"http://www-wds.worldbank.org/servlet/WDSServlet?pcont=details&eid=000104615_20070116094322","DocDate":"20-DEC-2006"}],"countryname":"Republic of Chile"}},"facets":{}}