{"rows":10,"os":"0","page":"1","total":"1","projects":{"P112359":{"id":"P112359","projectfinancialtype":"IBRD","regionname":"East Asia and Pacific","prodline":"PE","lendinginstr":"Specific Investment Loan","lendinginstrtype":"IN","envassesmentcategorycode":"A","supplementprojectflg":"N","productlinetype":"L","projectstatusdisplay":"Closed","status":"Closed","project_name":"NanGuang Railway Project","board_approval_month":"June","approvalfy":"2009","boardapprovaldate":"2009-06-24T00:00:00Z","closingdate":"2015-06-30T00:00:00Z","lendprojectcost":"5,985,000,000","ibrdcommamt":"300,000,000","idacommamt":"0","totalamt":"300,000,000","grantamt":"0","borrower":"IIST","impagency":"IIST","url":"http://www.worldbank.org/projects/P112359/nanguang-railway-project?lang=en","countryshortname":"China","teamleaderupi":"146682","prodlinetext":"IBRD/IDA","keywords":{"cdata":"access roads, accessibility, accountability, accounting, accreditation, adverse environmental impact, affordability, agglomeration benefits, air, air fares, air transport, alternative financing, approval procedure, autonomy, average travel time, axle loads, Bank Borrowers, Bank financing, Bank loan, Bank management, border crossings, Borrower, bridge, bus, capital investment, capital investment program, cars, cities, city passenger, civil works, commercial transport, communities, concessions, congestion, consolidated financial statements, corruption, counterpart funds, Credits, crossings, CTC, culverts, debt, debt financing, debt service, DESCRIPTION, Displaced Persons, drainage, economic development, economic growth, Economic Reform, electric locomotives, emissions, Employment, environmental benefits, environmental degradation, environmental impacts, Environmental Protection, Environmental Protection Agency, environmental sustainability, Ethnic minorities, Ethnic Minority, Exchange Rate, Expenditure, express freight, Express trains, fares, farmers, financial analyses, Financial Analysis, financial institutions, Financial Management, financial performance, foreign investment, freight, freight demand, freight services, freight traffic, freight trains, freight transport, Funding sources, government policies, Greenhouse Gas, greenhouse gas emissions, greenhouse gases, Habitats, highways, households, houses, housing, ID, income groups, indigenous peoples, inequality, Information "},"project_abstract":{"cdata":"The objective of the NanGuang Railway Project is to provide additional transport capacity and reduce transport time between the less developed western region of southwest China and the relatively more developed Pearl River Delta region. The components of the project include: the project achieves its development objective by connecting the existing railway network in the western region of southwest China and the existing railway network in the Pearl River Delta region. It will also connect to numerous network improvements underway or planned which will directly contribute to optimizing the benefits to rail transport provided by this project. The project alignment is relatively direct connecting urban centers such as Litang, Guigang, Wuzhou, and Zhaoqing. The project passes through generally lightly-populated country and traverses a variety of terrains including flat alluvial terraces and eroded basins and hilly river valley basins. Sixteen intermediate railway stations and four overtaking stations are planned to be built or reconstructed as part of the project. The new track of the project will run parallel to the existing track between Litang and Guigang (about 59 km). Between Litang and Guigang, freight trains will operate on the existing track while the passenger trains will use the new project track. Power will be provided from the nearby city grid to the 'traction substation' (i.e. transformer house) in the railway station under an electricity purchase contract and by the local power company. There will be connection lines between the traction substation and the city grid. These lines are parts of the city grid and not separate dedicated electric transmission lines for the project. The planned construction period is about four years. Construction commenced in April 2009 and the project is proposed to be commissioned by 2014. At the time of appraisal, mid- April 20"},"country_namecode":"People's Republic of China!$!CN","projectinfo":"<![CDATA[<Project><LangCode>ZH</LangCode><ProjectName>\u5357\u5e7f\u94c1\u8def\u9879\u76ee</ProjectName><ProjectAbstract>\u672c\u9879\u76ee\u7684\u76ee\u6807\u662f\u589e\u52a0\u4e2d\u56fd\u897f\u5357\u6b20\u53d1\u8fbe\u897f\u90e8\u5730\u533a\u548c\u76f8\u5bf9\u53d1\u8fbe\u73e0\u6c5f\u4e09\u89d2\u6d32\u5730\u533a\u4e4b\u95f4\u7684\u8fd0\u8f93\u80fd\u529b\uff0c\u7f29\u77ed\u8fd0\u8f93\u65f6\u95f4\u3002\u672c\u9879\u76ee\u5c06\u628a\u4e2d\u56fd\u897f\u5357\u897f\u90e8\u5730\u533a\u7684\u73b0\u6709\u94c1\u8def\u7f51\u540c\u73e0\u6c5f\u4e09\u89d2\u6d32\u5730\u533a\u7684\u73b0\u6709\u94c1\u8def\u7f51\u8fde\u901a\uff0c\u4ece\u800c\u5b9e\u73b0\u5176\u5efa\u8bbe\u76ee\u6807\u3002\u672c\u9879\u76ee\u4e5f\u5c06\u540c\u6539\u9020\u4e2d\u6216\u8ba1\u5212\u6539\u9020\u7684\u82e5\u5e72\u94c1\u8def\u7f51\u5b9e\u73b0\u8fde\u901a\uff0c\u540e\u8005\u5c06\u76f4\u63a5\u5bf9\u4f18\u5316\u672c\u9879\u76ee\u5e26\u6765\u7684\u8fd0\u8f93\u6548\u76ca\u4f5c\u51fa\u8d21\u732e\u3002\u672c\u9879\u76ee\u7ebf\u8def\u76f8\u5bf9\u8f83\u76f4\uff0c\u5e76\u5c06\u9ece\u5858\u3001\u8d35\u6e2f\u3001\u68a7\u5dde\u548c\u8087\u5e86\u7b49\u57ce\u5e02\u8fde\u6210\u4e00\u4f53\u3002\u672c\u9879\u76ee\u7ecf\u8fc7\u4eba\u53e3\u5bc6\u5ea6\u8f83\u4f4e\u7684\u519c\u6751\uff0c\u6a2a\u7a7f\u51b2\u51fb\u68af\u7530\u3001\u4fb5\u8680\u76c6\u5730\u548c\u4e18\u9675\u6cb3\u8c37\u7b49\u591a\u79cd\u5730\u5f62\u3002\u672c\u9879\u76ee\u8ba1\u5212\u5174\u5efa16\u5ea7\u4e2d\u95f4\u7ad9\u548c4\u5ea7\u8d8a\u884c\u7ad9\u3002\u672c\u9879\u76ee\u65b0\u5efa\u94c1\u8f68\u5c06\u4e0e\u9ece\u5858\u81f3\u8d35\u6e2f\u4e4b\u95f4\u7684\u73b0\u6709\u94c1\u8f68\uff08\u957f\u7ea659\u516c\u91cc\uff09\u4fdd\u6301\u5e73\u884c\u3002\u9ece\u5858\u81f3\u8d35\u6e2f\u7684\u8d27\u8fd0\u5217\u8f66\u5c06\u4f7f\u7528\u73b0\u6709\u94c1\u8f68\uff0c\u5ba2\u8fd0\u5217\u8f66\u5c06\u4f7f\u7528\u672c\u9879\u76ee\u65b0\u5efa\u94c1\u8f68\u3002\u5f53\u5730\u7535\u529b\u516c\u53f8\u5c06\u6839\u636e\u8d2d\u7535\u5408\u540c\u4ece\u9644\u8fd1\u57ce\u5e02\u7535\u7f51\u5411\u4f4d\u4e8e\u706b\u8f66\u7ad9\u7684\u7275\u5f15\u53d8\u7535\u7ad9\u4f9b\u7535\u3002\u7275\u5f15\u53d8\u7535\u7ad9\u548c\u57ce\u5e02\u7535\u7f51\u4e4b\u95f4\u5c06\u67b6\u8bbe\u8fde\u63a5\u7ebf\uff0c\u5b83\u4eec\u662f\u57ce\u5e02\u7535\u7f51\u7684\u7ec4\u6210\u90e8\u5206\uff0c\u5e76\u4e0d\u662f\u4e3a\u672c\u9879\u76ee\u67b6\u8bbe\u7684\u4e13\u7528\u8f93\u7535\u7ebf\u3002\u672c\u9879\u76ee\u8ba1\u5212\u5efa\u8bbe\u671f\u7ea6\u4e3a4\u5e74\u3002\u672c\u9879\u76ee\u4e8e2009\u5e744\u6708\u5f00\u5de5\uff0c\u62df\u4e8e2014\u5e74\u5e74\u5e95\u4e4b\u524d\u6295\u5165\u8fd0\u8425\u30022009\u5e744\u6708\u4e2d\u65ec\u9879\u76ee\u8bc4\u4f30\u671f\u95f4\uff0c\u5f81\u5730\u5de5\u4f5c\u5df2\u7136\u5f00\u59cb\uff0c\u4f46\u79fb\u6c11\u5b89\u7f6e\u5de5\u4f5c\u548c\u65bd\u5de5\u5c1a\u672a\u542f\u52a8\u3002\u4e0d\u8fc7\uff0c\u4e00\u65e6\u5f00\u5de5\uff0c\u9884\u8ba1\u65bd\u5de5\u4f1a\u8fc5\u901f\u63a8\u8fdb\u3002</ProjectAbstract></Project>]]>","agencyinfo":"<![CDATA[<Agency><ImplProjectLang>EN</ImplProjectLang><ImplAgencyID>1</ImplAgencyID><ImplName>MINISTRY OF RAILWAYS</ImplName><ContactName>Xu Feng </ContactName><ImplCountry>China</ImplCountry><ImplPhone>(86-10) 5184-1825</ImplPhone><ImplFax>\n(86-10) 5184-1845</ImplFax><ImplEmail>xufengcn@163.com</ImplEmail></Agency><Agency><ImplProjectLang>ZH</ImplProjectLang><ImplAgencyID>1</ImplAgencyID><ImplName>\u94c1\u9053\u90e8\u5229\u7528\u5916\u8d44\u548c\u5f15\u8fdb\u6280\u672f\u4e2d\u5fc3</ImplName><ContactName>\u8bb8\u5cf0</ContactName><ImplCountry>\u4e2d\u56fd</ImplCountry><ImplPhone>(86-10) 5184-1825</ImplPhone><ImplFax>\n(86-10) 5184-1845</ImplFax><ImplEmail>xufengcn@163.com</ImplEmail></Agency>]]>","sector1":{"Name":"Railways","Percent":100},"theme1":{"Name":"Public expenditure, financial management and procurement","Percent":100},"totalcommamt":"300,000,000","sector":[{"Name":"Railways"}],"docty":"Implementation Status and Results Report,Implementation Status and Results Report,Implementation Status and Results Report,Implementation Status and Results Report,Project Paper,Implementation Status and Results Report,Procurement Plan,Project Paper,Procurement Plan,Loan Agreement,Loan Agreement,Project Appraisal Document,Integrated Safeguards Data Sheet,Environmental Assessment,Project Information Document,Project Information Document,Environmental Assessment,Environmental Assessment,Integrated Safeguards Data Sheet,Project Information Document,Resettlement Plan,Resettlement Plan,Resettlement Plan,Resettlement Plan,Resettlement Plan,Resettlement Plan,Environmental Assessment,Environmental Assessment,Resettlement Plan","countrycode":"CN","sectorcode":"TW","mjsector_namecode":[{"name":"Transportation","code":"TX"}],"locations":[{"geoLocId":"0001784628","geoLocName":"Zhenlong","latitude":"23.41556","longitude":"110.41111","country":"CN"},{"geoLocId":"0001784853","geoLocName":"Zhaoqing","latitude":"23.051161","longitude":"112.45972","country":"CN"},{"geoLocId":"0001785745","geoLocName":"Yunan Xian","latitude":"23.029751","longitude":"111.61734","country":"CN"},{"geoLocId":"0001787878","geoLocName":"Xunwang","latitude":"23.37944","longitude":"110.12944","country":"CN"},{"geoLocId":"0001790840","geoLocName":"Wuzhou","latitude":"23.48333","longitude":"111.31667","country":"CN"},{"geoLocId":"0001791125","geoLocName":"Wulin","latitude":"23.42028","longitude":"110.53111","country":"CN"},{"geoLocId":"0001792914","geoLocName":"Tianping","latitude":"23.41139","longitude":"110.67528","country":"CN"},{"geoLocId":"0001793038","geoLocName":"Teng Xian","latitude":"23.383329","longitude":"110.9","country":"CN"},{"geoLocId":"0001793048","geoLocName":"Tengzhou","latitude":"23.38806","longitude":"110.89116","country":"CN"},{"geoLocId":"0001795557","geoLocName":"Shepo","latitude":"23.378889","longitude":"110.20972","country":"CN"},{"geoLocId":"0001796607","geoLocName":"Sanshui Qu","latitude":"23.15917","longitude":"112.88361","country":"CN"},{"geoLocId":"0001797566","geoLocName":"Qintang","latitude":"23.133329","longitude":"109.43333","country":"CN"},{"geoLocId":"0001798733","geoLocName":"Pingnan","latitude":"23.542179","longitude":"110.38946","country":"CN"},{"geoLocId":"0001799982","geoLocName":"Nanjiangkou","latitude":"23.12579","longitude":"111.81003","country":"CN"},{"geoLocId":"0001800036","geoLocName":"Nanhai Qu","latitude":"23.032221","longitude":"113.14278","country":"CN"},{"geoLocId":"0001800201","geoLocName":"Gaoyao","latitude":"23.024321","longitude":"112.44555","country":"CN"},{"geoLocId":"0001803167","geoLocName":"Liudu","latitude":"23.07729","longitude":"112.00339","country":"CN"},{"geoLocId":"0001803231","geoLocName":"Litang","latitude":"23.200001","longitude":"109.13333","country":"CN"},{"geoLocId":"0001806435","geoLocName":"Jiancheng","latitude":"23.13665","longitude":"111.53879","country":"CN"},{"geoLocId":"0001809485","geoLocName":"Guiping Xian","latitude":"23.4","longitude":"110.08333","country":"CN"},{"geoLocId":"0001809486","geoLocName":"Guiping","latitude":"23.39336","longitude":"110.07437","country":"CN"},{"geoLocId":"0001809532","geoLocName":"Guigang","latitude":"23.09639","longitude":"109.60917","country":"CN"},{"geoLocId":"0001809912","geoLocName":"Guangli","latitude":"23.18755","longitude":"112.61085","country":"CN"},{"geoLocId":"0001810195","geoLocName":"Genzhu","latitude":"23.133329","longitude":"109.5","country":"CN"},{"geoLocId":"0001811929","geoLocName":"Ducheng","latitude":"23.242121","longitude":"111.5284","country":"CN"},{"geoLocId":"0001813698","geoLocName":"Dapo","latitude":"23.25","longitude":"111.3","country":"CN"},{"geoLocId":"0001813799","geoLocName":"Danzao","latitude":"23.0425","longitude":"112.91389","country":"CN"},{"geoLocId":"0001814651","geoLocName":"Da'an","latitude":"23.388611","longitude":"110.50889","country":"CN"},{"geoLocId":"0001816085","geoLocName":"Cangwu Xian","latitude":"23.41667","longitude":"111.23333","country":"CN"},{"geoLocId":"0001816339","geoLocName":"Binyang Xian","latitude":"23.200001","longitude":"108.8","country":"CN"},{"geoLocId":"0001817454","geoLocName":"Baisha","latitude":"23.20639","longitude":"109.92611","country":"CN"},{"geoLocId":"0001893203","geoLocName":"Huanglian","latitude":"23.149441","longitude":"109.30833","country":"CN"},{"geoLocId":"0001912213","geoLocName":"Yun'an Xian","latitude":"22.82103","longitude":"111.94372","country":"CN"},{"geoLocId":"0001912214","geoLocName":"Nanhai","latitude":"23.021931","longitude":"113.14278","country":"CN"},{"geoLocId":"0001914564","geoLocName":"Lianhua","latitude":"23.26256","longitude":"112.68694","country":"CN"},{"geoLocId":"0001914574","geoLocName":"Yong'an","latitude":"23.179171","longitude":"112.68854","country":"CN"},{"geoLocId":"0001914577","geoLocName":"Xiaoxiang","latitude":"23.135651","longitude":"112.38691","country":"CN"},{"geoLocId":"0001914580","geoLocName":"Mugang","latitude":"23.06773","longitude":"112.41537","country":"CN"},{"geoLocId":"0001914584","geoLocName":"Dawan","latitude":"23.050051","longitude":"112.39645","country":"CN"},{"geoLocId":"0001914589","geoLocName":"Duyang","latitude":"23.01712","longitude":"112.15037","country":"CN"},{"geoLocId":"0001916873","geoLocName":"Dali","latitude":"23.11974","longitude":"113.11673","country":"CN"},{"geoLocId":"0001920297","geoLocName":"Guiwei","latitude":"23.157841","longitude":"111.70705","country":"CN"},{"geoLocId":"0006571348","geoLocName":"Duanzhou Qu","latitude":"23.069441","longitude":"112.49333","country":"CN"},{"geoLocId":"0006571349","geoLocName":"Dinghu Qu","latitude":"23.1875","longitude":"112.56417","country":"CN"},{"geoLocId":"0006571359","geoLocName":"Yuncheng Qu","latitude":"22.930149","longitude":"112.0386","country":"CN"},{"geoLocId":"0006920719","geoLocName":"Xinan","latitude":"23.154449","longitude":"112.89344","country":"CN"},{"geoLocId":"0006922457","geoLocName":"Guicheng","latitude":"23.036249","longitude":"113.1856","country":"CN"},{"geoLocId":"0006922472","geoLocName":"Shishan","latitude":"23.12385","longitude":"113.00875","country":"CN"},{"geoLocId":"0006926312","geoLocName":"Pingtai Zhen","latitude":"23.25246","longitude":"111.41676","country":"CN"},{"geoLocId":"0006926315","geoLocName":"Baozhu Zhen","latitude":"23.119089","longitude":"111.60408","country":"CN"},{"geoLocId":"0006926890","geoLocName":"Fenghuang","latitude":"23.20389","longitude":"112.56678","country":"CN"},{"geoLocId":"0006926908","geoLocName":"Guicheng","latitude":"23.19219","longitude":"112.5701","country":"CN"}],"mjtheme":["Public sector governance"],"themecode":"27","mjthemecode":"2,8","mjtheme_namecode":[{"name":"Public sector governance","code":"2"},{"name":"","code":"8"}],"sector_namecode":[{"name":"Railways","code":"TW"}],"theme_namecode":[{"name":"Public expenditure, financial management and procurement","code":"27"}],"source":"IBRD","majorsector_percent":[{"Name":"Transportation","Percent":100}],"projectdocs":[{"DocTypeDesc":"Implementation Status and Results Report (ISRR),  Vol.1","DocType":"ISRR","EntityID":"090224b0824e605a_1_0","DocURL":"http://www-wds.worldbank.org/servlet/WDSServlet?pcont=details&eid=090224b0824e605a_1_0","DocDate":"10-JUN-2014"},{"DocTypeDesc":"Implementation Status and Results Report (ISRR),  Vol.1","DocType":"ISRR","EntityID":"090224b081fe6327_1_0","DocURL":"http://www-wds.worldbank.org/servlet/WDSServlet?pcont=details&eid=090224b081fe6327_1_0","DocDate":"26-OCT-2013"},{"DocTypeDesc":"Implementation Status and Results Report (ISRR),  Vol.1","DocType":"ISRR","EntityID":"090224b081aefdb5_1_0","DocURL":"http://www-wds.worldbank.org/servlet/WDSServlet?pcont=details&eid=090224b081aefdb5_1_0","DocDate":"22-APR-2013"},{"DocTypeDesc":"Implementation Status and Results Report (ISRR),  Vol.1","DocType":"ISRR","EntityID":"0000A8056_2012032402461663","DocURL":"http://www-wds.worldbank.org/servlet/WDSServlet?pcont=details&eid=0000A8056_2012032402461663","DocDate":"24-MAR-2012"},{"DocTypeDesc":"Project Paper (PJPR),  Vol.2","DocType":"PJPR","EntityID":"000333037_20110826000937","DocURL":"http://www-wds.worldbank.org/servlet/WDSServlet?pcont=details&eid=000333037_20110826000937","DocDate":"02-AUG-2011"},{"DocTypeDesc":"Implementation Status and Results Report (ISRR),  Vol.1","DocType":"ISRR","EntityID":"0000A8056_2011062804083618","DocURL":"http://www-wds.worldbank.org/servlet/WDSServlet?pcont=details&eid=0000A8056_2011062804083618","DocDate":"28-JUN-2011"},{"DocTypeDesc":"Procurement Plan (PROP),  Vol.1","DocType":"PROP","EntityID":"000333037_20110318043916","DocURL":"http://www-wds.worldbank.org/servlet/WDSServlet?pcont=details&eid=000333037_20110318043916","DocDate":"19-JAN-2011"},{"DocTypeDesc":"Project Paper (PJPR),  Vol.1","DocType":"PJPR","EntityID":"000333037_20110826000728","DocURL":"http://www-wds.worldbank.org/servlet/WDSServlet?pcont=details&eid=000333037_20110826000728","DocDate":"08-NOV-2010"},{"DocTypeDesc":"Procurement Plan (PROP),  Vol.1","DocType":"PROP","EntityID":"000333038_20100624010526","DocURL":"http://www-wds.worldbank.org/servlet/WDSServlet?pcont=details&eid=000333038_20100624010526","DocDate":"13-APR-2010"},{"DocTypeDesc":"Loan Agreement (LA),  Vol.","DocType":"LA","EntityID":"000014464_2010120211500872","DocURL":"http://www-wds.worldbank.org/servlet/WDSServlet?pcont=details&eid=000014464_2010120211500872","DocDate":"31-AUG-2009"},{"DocTypeDesc":"Loan Agreement (),  Vol.","DocType":"000014464_2010032612355672","EntityID":"http://www-wds.worldbank.org/servlet/WDSServlet?pcont=details&eid=000014464_2010032612355672","DocURL":"31-AUG-2009"},{"DocTypeDesc":"Project Appraisal Document (PAD),  Vol.1","DocType":"PAD","EntityID":"000333037_20090609010825","DocURL":"http://www-wds.worldbank.org/servlet/WDSServlet?pcont=details&eid=000333037_20090609010825","DocDate":"29-MAY-2009"},{"DocTypeDesc":"Integrated Safeguards Data Sheet (ISDS),  Vol.1","DocType":"ISDS","EntityID":"000104615_20090518172403","DocURL":"http://www-wds.worldbank.org/servlet/WDSServlet?pcont=details&eid=000104615_20090518172403","DocDate":"14-MAY-2009"},{"DocTypeDesc":"Environmental Assessment (EA),  Vol.5","DocType":"EA","EntityID":"000333038_20090818000420","DocURL":"http://www-wds.worldbank.org/servlet/WDSServlet?pcont=details&eid=000333038_20090818000420","DocDate":"16-APR-2009"},{"DocTypeDesc":"Project Information Document (PID),  Vol.1","DocType":"PID","EntityID":"000104615_20090416110025","DocURL":"http://www-wds.worldbank.org/servlet/WDSServlet?pcont=details&eid=000104615_20090416110025","DocDate":"16-APR-2009"},{"DocTypeDesc":"Project Information Document (PID),  Vol.1","DocType":"PID","EntityID":"000333038_20100419233242","DocURL":"http://www-wds.worldbank.org/servlet/WDSServlet?pcont=details&eid=000333038_20100419233242","DocDate":"16-APR-2009"},{"DocTypeDesc":"Environmental Assessment (EA),  Vol.4","DocType":"EA","EntityID":"000333038_20090512000232","DocURL":"http://www-wds.worldbank.org/servlet/WDSServlet?pcont=details&eid=000333038_20090512000232","DocDate":"01-APR-2009"},{"DocTypeDesc":"Environmental Assessment (EA),  Vol.3","DocType":"EA","EntityID":"000333037_20090820021532","DocURL":"http://www-wds.worldbank.org/servlet/WDSServlet?pcont=details&eid=000333037_20090820021532","DocDate":"01-APR-2009"},{"DocTypeDesc":"Integrated Safeguards Data Sheet (ISDS),  Vol.1","DocType":"ISDS","EntityID":"000013944_20090319192155","DocURL":"http://www-wds.worldbank.org/servlet/WDSServlet?pcont=details&eid=000013944_20090319192155","DocDate":"18-MAR-2009"},{"DocTypeDesc":"Project Information Document (PID),  Vol.1","DocType":"PID","EntityID":"000013944_20090318180123","DocURL":"http://www-wds.worldbank.org/servlet/WDSServlet?pcont=details&eid=000013944_20090318180123","DocDate":"17-MAR-2009"},{"DocTypeDesc":"Resettlement Plan (RPL),  Vol.3","DocType":"RPL","EntityID":"000334955_20090326080430","DocURL":"http://www-wds.worldbank.org/servlet/WDSServlet?pcont=details&eid=000334955_20090326080430","DocDate":"17-MAR-2009"},{"DocTypeDesc":"Resettlement Plan (RPL),  Vol.4","DocType":"RPL","EntityID":"000333038_20090511234525","DocURL":"http://www-wds.worldbank.org/servlet/WDSServlet?pcont=details&eid=000333038_20090511234525","DocDate":"10-MAR-2009"},{"DocTypeDesc":"Resettlement Plan (RPL),  Vol.1","DocType":"RPL","EntityID":"000334955_20090326074011","DocURL":"http://www-wds.worldbank.org/servlet/WDSServlet?pcont=details&eid=000334955_20090326074011","DocDate":"10-MAR-2009"},{"DocTypeDesc":"Resettlement Plan (RPL),  Vol.2","DocType":"RPL","EntityID":"000334955_20090326074834","DocURL":"http://www-wds.worldbank.org/servlet/WDSServlet?pcont=details&eid=000334955_20090326074834","DocDate":"10-MAR-2009"},{"DocTypeDesc":"Resettlement Plan (RPL),  Vol.2","DocType":"RPL","EntityID":"000334955_20090326075506","DocURL":"http://www-wds.worldbank.org/servlet/WDSServlet?pcont=details&eid=000334955_20090326075506","DocDate":"10-MAR-2009"},{"DocTypeDesc":"Resettlement Plan (RPL),  Vol.1","DocType":"RPL","EntityID":"000334955_20090326074332","DocURL":"http://www-wds.worldbank.org/servlet/WDSServlet?pcont=details&eid=000334955_20090326074332","DocDate":"10-MAR-2009"},{"DocTypeDesc":"Environmental Assessment (EA),  Vol.2","DocType":"EA","EntityID":"000333038_20090326025715","DocURL":"http://www-wds.worldbank.org/servlet/WDSServlet?pcont=details&eid=000333038_20090326025715","DocDate":"01-FEB-2009"},{"DocTypeDesc":"Environmental Assessment (EA),  Vol.1","DocType":"EA","EntityID":"000333037_20090817231423","DocURL":"http://www-wds.worldbank.org/servlet/WDSServlet?pcont=details&eid=000333037_20090817231423","DocDate":"01-FEB-2009"},{"DocTypeDesc":"Resettlement Plan (RPL),  Vol.3","DocType":"RPL","EntityID":"000334955_20090326075201","DocURL":"http://www-wds.worldbank.org/servlet/WDSServlet?pcont=details&eid=000334955_20090326075201","DocDate":"01-FEB-2009"}],"countryname":"People's Republic of China"}},"facets":{}}