{"rows":10,"os":"0","page":"1","total":"1","projects":{"P118308":{"id":"P118308","projectfinancialtype":"IBRD","regionname":"Europe and Central Asia","prodline":"PE","lendinginstr":"Financial Intermediary Loan","lendinginstrtype":"IN","envassesmentcategorycode":"F","supplementprojectflg":"N","productlinetype":"L","projectstatusdisplay":"Closed","status":"Closed","project_name":"Second Turkey Access to Finance for Small and Medium Enterprises Project","board_approval_month":"June","approvalfy":"2010","boardapprovaldate":"2010-06-15T00:00:00Z","closingdate":"2015-03-31T00:00:00Z","lendprojectcost":"500,000,000","ibrdcommamt":"500,000,000","idacommamt":"0","totalamt":"500,000,000","grantamt":"0","borrower":"EPULIC","impagency":"HALA A","url":"http://www.worldbank.org/projects/P118308/second-turkey-access-finance-small-medium-enterprises-project?lang=en","countryshortname":"Turkey","teamleaderupi":"369332","prodlinetext":"IBRD/IDA","keywords":{"cdata":"access to credit, ACCESS TO FINANCE, access to information, accountability, accounting, advisory services, alternative funding, asset quality, auctions, Auditing, Audits, Bank Credit, Bank financing, bank loan, bank loans, Bank management, Bank policies, banking crisis, banking laws, Banking Regulation, banking sector, banking services, banking system, basis points, Borrower, borrowing, branch network, broker, capacity building, Capital Adequacy, capital base, capital expenditures, capital flows, capital formation, capital loans, Central Bank, chambers of commerce, collateral, collateral requirements, commercial bank, commercial banks, commercial loans, Competitive Bidding, consolidation, consumer durables, Corruption, credit appraisal, credit assessment, credit cards, credit facilities, credit flows, Credit Guarantee, credit line, credit lines, credit markets, credit portfolio, credit portfolios, credit ratings, credit risk, credit scoring, credit subsidies, Credits, creditworthiness, creditworthy borrowers, CURRENCY, Current Account, Current Account Deficit, Debt, debt burden, debt management, Debt Service, debts, deficits, deposit, deposits, directed credit, Disbursement, Disbursements, disclosure requirements, economic conditions, Economic Cooperation, economic crisis, ECONOMIC DEVELOPMENTS, economic growth, EIB, eligibility criteria, employee, employment, employment opportunities, Enterprise Access, Enterprise Performance, Exchange Rate, Exchange Rates, export earnings, "},"project_abstract":{"cdata":"The objective of the Second Access to Finance for Small and Medium Enterprises (SMEs) Project is to broaden and deepen the access of Turkish small and medium enterprises to medium and long-term finance, with a view to ultimately contributing to an expansion of productive activities and job creation. There are three components to the project. Under component one, the World Bank will provide a US$100 million credit line to Kalkinma Bank, which will be the Borrower and implementing agency for this component. Under component two, the World Bank will provide a US$200 million credit line to Ziraat Bank, which will be the Borrower and implementing agency for this component. Ziraat Bank, a public sector bank, has a unique advantage in offering credit to the SMEs (especially in the agro-processing sector) in all regions of the country due to its strong branch presence in the country combined with its focus on the SME segment and its plans to further expand its SME portfolio. Finally, under component three, the World Bank will provide a US$200 million credit line to Vakif Bank, which will be the Borrower and implementing agency for this component."},"country_namecode":"Republic of Turkey!$!TR","sector1":{"Name":"SME Finance","Percent":70},"sector2":{"Name":"General finance sector","Percent":15},"sector3":{"Name":"General industry and trade sector","Percent":10},"sector4":{"Name":"Banking","Percent":5},"theme1":{"Name":"Micro, Small and Medium Enterprise support","Percent":67},"totalcommamt":"500,000,000","sector":[{"Name":"SME Finance"},{"Name":"General finance sector"},{"Name":"General industry and trade sector"},{"Name":"Banking"}],"docty":"Implementation Status and Results Report,Agreement,Agreement,Implementation Status and Results Report,Implementation Status and Results Report,Implementation Status and Results Report,Implementation Status and Results Report,Implementation Status and Results Report,Guarantee Agreement,Guarantee Agreement,Guarantee Agreement,Loan Agreement,Loan Agreement,Loan Agreement,Project Appraisal Document,Integrated Safeguards Data Sheet,Project Information Document,Manual,Manual,Manual,Manual,Integrated Safeguards Data Sheet,Project Information Document","countrycode":"TR","sectorcode":"FA,YZ,FZ,FH","mjsector_namecode":[{"name":"Finance","code":"FX"},{"name":"Finance","code":"FX"},{"name":"Industry and trade","code":"YX"},{"name":"Finance","code":"FX"}],"locations":[{"geoLocId":"0000296560","geoLocName":"Yozgat","latitude":"39.583328","longitude":"35.333328","country":"TR"},{"geoLocId":"0000298113","geoLocName":"Van","latitude":"38.40736","longitude":"43.717789","country":"TR"},{"geoLocId":"0000298332","geoLocName":"Sanliurfa","latitude":"37.21283","longitude":"38.781738","country":"TR"},{"geoLocId":"0000298845","geoLocName":"Tunceli","latitude":"39.083328","longitude":"39.5","country":"TR"},{"geoLocId":"0000300617","geoLocName":"Sivas","latitude":"39.791649","longitude":"37.001949","country":"TR"},{"geoLocId":"0000300821","geoLocName":"Siirt","latitude":"37.961521","longitude":"41.945801","country":"TR"},{"geoLocId":"0000303826","geoLocName":"Nigde","latitude":"37.833328","longitude":"34.75","country":"TR"},{"geoLocId":"0000303830","geoLocName":"Nevsehir","latitude":"38.916672","longitude":"34.666672","country":"TR"},{"geoLocId":"0000304041","geoLocName":"Mus","latitude":"39","longitude":"41.75","country":"TR"},{"geoLocId":"0000304794","geoLocName":"Mardin","latitude":"37.317749","longitude":"40.715328","country":"TR"},{"geoLocId":"0000304919","geoLocName":"Malatya","latitude":"38.5","longitude":"38","country":"TR"},{"geoLocId":"0000307513","geoLocName":"Kirsehir","latitude":"39.333328","longitude":"34.166672","country":"TR"},{"geoLocId":"0000310858","geoLocName":"Kahramanmaras","latitude":"38","longitude":"37","country":"TR"},{"geoLocId":"0000312888","geoLocName":"Hakkari","latitude":"37.583328","longitude":"44.166672","country":"TR"},{"geoLocId":"0000315367","geoLocName":"Erzurum","latitude":"40","longitude":"41.5","country":"TR"},{"geoLocId":"0000315372","geoLocName":"Erzincan","latitude":"39.75","longitude":"39.5","country":"TR"},{"geoLocId":"0000315807","geoLocName":"Elazig","latitude":"38.73695","longitude":"39.17725","country":"TR"},{"geoLocId":"0000316540","geoLocName":"Diyarbakir","latitude":"37.961521","longitude":"40.23193","country":"TR"},{"geoLocId":"0000321022","geoLocName":"Bitlis","latitude":"38.34201","longitude":"42.391338","country":"TR"},{"geoLocId":"0000321079","geoLocName":"Bingol","latitude":"39.083328","longitude":"40.833328","country":"TR"},{"geoLocId":"0000325163","geoLocName":"Agri","latitude":"39.666672","longitude":"43.166672","country":"TR"},{"geoLocId":"0000325329","geoLocName":"Adiyaman","latitude":"37.75","longitude":"38.25","country":"TR"},{"geoLocId":"0000443183","geoLocName":"Osmaniye","latitude":"37.235249","longitude":"36.24596","country":"TR"},{"geoLocId":"0000443184","geoLocName":"Igdir","latitude":"39.916672","longitude":"44","country":"TR"},{"geoLocId":"0000443185","geoLocName":"Aksaray","latitude":"38.365028","longitude":"34.014198","country":"TR"},{"geoLocId":"0000443186","geoLocName":"Batman","latitude":"38","longitude":"41.333328","country":"TR"},{"geoLocId":"0000443187","geoLocName":"Karaman","latitude":"37.083328","longitude":"33.25","country":"TR"},{"geoLocId":"0000443188","geoLocName":"Kirikkale","latitude":"39.833328","longitude":"33.75","country":"TR"},{"geoLocId":"0000443189","geoLocName":"Sirnak","latitude":"37.5","longitude":"42.5","country":"TR"},{"geoLocId":"0000443213","geoLocName":"Kilis","latitude":"36.73","longitude":"37.139999","country":"TR"},{"geoLocId":"0000737021","geoLocName":"Zonguldak","latitude":"41.25","longitude":"31.83333","country":"TR"},{"geoLocId":"0000738647","geoLocName":"Trabzon","latitude":"40.869461","longitude":"39.81255","country":"TR"},{"geoLocId":"0000738742","geoLocName":"Tokat","latitude":"40.416672","longitude":"36.583328","country":"TR"},{"geoLocId":"0000739598","geoLocName":"Sinop","latitude":"41.771061","longitude":"34.870949","country":"TR"},{"geoLocId":"0000740263","geoLocName":"Samsun","latitude":"41.25","longitude":"36.333328","country":"TR"},{"geoLocId":"0000740481","geoLocName":"Rize","latitude":"40.90443","longitude":"40.89489","country":"TR"},{"geoLocId":"0000741098","geoLocName":"Ordu","latitude":"40.908581","longitude":"37.684479","country":"TR"},{"geoLocId":"0000743881","geoLocName":"Kastamonu","latitude":"41.5","longitude":"33.666672","country":"TR"},{"geoLocId":"0000743942","geoLocName":"Kars","latitude":"40.416672","longitude":"43.083328","country":"TR"},{"geoLocId":"0000746423","geoLocName":"Gumushane","latitude":"40.25","longitude":"39.583328","country":"TR"},{"geoLocId":"0000746878","geoLocName":"Giresun","latitude":"40.5","longitude":"38.5","country":"TR"},{"geoLocId":"0000748877","geoLocName":"Corum","latitude":"40.5","longitude":"34.75","country":"TR"},{"geoLocId":"0000749747","geoLocName":"Cankiri","latitude":"40.666672","longitude":"33.416672","country":"TR"},{"geoLocId":"0000751816","geoLocName":"Artvin","latitude":"41.166672","longitude":"41.833328","country":"TR"},{"geoLocId":"0000752014","geoLocName":"Amasya","latitude":"40.726189","longitude":"35.8867","country":"TR"},{"geoLocId":"0000862467","geoLocName":"Bartin","latitude":"41.583328","longitude":"32.5","country":"TR"},{"geoLocId":"0000862468","geoLocName":"Karabuk","latitude":"41.25","longitude":"32.5","country":"TR"},{"geoLocId":"0000862470","geoLocName":"Ardahan","latitude":"41.083328","longitude":"42.833328","country":"TR"},{"geoLocId":"0000862471","geoLocName":"Bayburt","latitude":"40.25","longitude":"40.25","country":"TR"},{"geoLocId":"0007910944","geoLocName":"Bozcaada","latitude":"39.824089","longitude":"26.040689","country":"TR"},{"geoLocId":"0007910945","geoLocName":"Gokceada","latitude":"40.16523","longitude":"25.85907","country":"TR"}],"mjtheme":["Financial and private sector development"],"ccsa_practice_code":"JOB","themecode":"41","combined_practice_name":"Jobs","mjthemecode":"4,8","mjtheme_namecode":[{"name":"Financial and private sector development","code":"4"},{"name":"","code":"8"}],"sector_namecode":[{"name":"SME Finance","code":"FH"},{"name":"General finance sector","code":"FZ"},{"name":"General industry and trade sector","code":"YZ"},{"name":"Banking","code":"FA"}],"theme_namecode":[{"name":"Micro, Small and Medium Enterprise support","code":"41"}],"source":"IBRD","combined_practice_code":"JOB","majorsector_percent":[{"Name":"Finance","Percent":70},{"Name":"Finance","Percent":15},{"Name":"Industry and trade","Percent":10},{"Name":"Finance","Percent":5}],"projectdocs":[{"DocTypeDesc":"Implementation Status and Results Report (ISRR),  Vol.1","DocType":"ISRR","EntityID":"090224b0829695dc_1_0","DocURL":"http://www-wds.worldbank.org/servlet/WDSServlet?pcont=details&eid=090224b0829695dc_1_0","DocDate":"30-DEC-2014"},{"DocTypeDesc":"Agreement (AGR),  Vol.","DocType":"AGR","EntityID":"090224b0827a9a34_1_0","DocURL":"http://www-wds.worldbank.org/servlet/WDSServlet?pcont=details&eid=090224b0827a9a34_1_0","DocDate":"17-SEP-2014"},{"DocTypeDesc":"Agreement (AGR),  Vol.","DocType":"AGR","EntityID":"090224b0827a9a2f_1_0","DocURL":"http://www-wds.worldbank.org/servlet/WDSServlet?pcont=details&eid=090224b0827a9a2f_1_0","DocDate":"17-SEP-2014"},{"DocTypeDesc":"Implementation Status and Results Report (ISRR),  Vol.1","DocType":"ISRR","EntityID":"090224b08255d1b7_1_0","DocURL":"http://www-wds.worldbank.org/servlet/WDSServlet?pcont=details&eid=090224b08255d1b7_1_0","DocDate":"05-JUL-2014"},{"DocTypeDesc":"Implementation Status and Results Report (ISRR),  Vol.1","DocType":"ISRR","EntityID":"090224b081fef44a_1_0","DocURL":"http://www-wds.worldbank.org/servlet/WDSServlet?pcont=details&eid=090224b081fef44a_1_0","DocDate":"28-OCT-2013"},{"DocTypeDesc":"Implementation Status and Results Report (ISRR),  Vol.1","DocType":"ISRR","EntityID":"090224b081854ff9_1_0","DocURL":"http://www-wds.worldbank.org/servlet/WDSServlet?pcont=details&eid=090224b081854ff9_1_0","DocDate":"02-JAN-2013"},{"DocTypeDesc":"Implementation Status and Results Report (ISRR),  Vol.1","DocType":"ISRR","EntityID":"0000A8056_2012050109553726","DocURL":"http://www-wds.worldbank.org/servlet/WDSServlet?pcont=details&eid=0000A8056_2012050109553726","DocDate":"01-MAY-2012"},{"DocTypeDesc":"Implementation Status and Results Report (ISRR),  Vol.1","DocType":"ISRR","EntityID":"0000A8056_2011010411182397","DocURL":"http://www-wds.worldbank.org/servlet/WDSServlet?pcont=details&eid=0000A8056_2011010411182397","DocDate":"04-JAN-2011"},{"DocTypeDesc":"Guarantee Agreement (GA),  Vol.","DocType":"GA","EntityID":"000014464_2010102911202955","DocURL":"http://www-wds.worldbank.org/servlet/WDSServlet?pcont=details&eid=000014464_2010102911202955","DocDate":"06-JUL-2010"},{"DocTypeDesc":"Guarantee Agreement (GA),  Vol.","DocType":"GA","EntityID":"000014464_2010081814174858","DocURL":"http://www-wds.worldbank.org/servlet/WDSServlet?pcont=details&eid=000014464_2010081814174858","DocDate":"06-JUL-2010"},{"DocTypeDesc":"Guarantee Agreement (GA),  Vol.","DocType":"GA","EntityID":"000014464_2010081814170660","DocURL":"http://www-wds.worldbank.org/servlet/WDSServlet?pcont=details&eid=000014464_2010081814170660","DocDate":"06-JUL-2010"},{"DocTypeDesc":"Loan Agreement (LA),  Vol.","DocType":"LA","EntityID":"000014464_2010081814154117","DocURL":"http://www-wds.worldbank.org/servlet/WDSServlet?pcont=details&eid=000014464_2010081814154117","DocDate":"06-JUL-2010"},{"DocTypeDesc":"Loan Agreement (LA),  Vol.","DocType":"LA","EntityID":"000014464_2010102911184212","DocURL":"http://www-wds.worldbank.org/servlet/WDSServlet?pcont=details&eid=000014464_2010102911184212","DocDate":"06-JUL-2010"},{"DocTypeDesc":"Loan Agreement (LA),  Vol.","DocType":"LA","EntityID":"000014464_2010081814162315","DocURL":"http://www-wds.worldbank.org/servlet/WDSServlet?pcont=details&eid=000014464_2010081814162315","DocDate":"06-JUL-2010"},{"DocTypeDesc":"Project Appraisal Document (PAD),  Vol.1","DocType":"PAD","EntityID":"000333037_20100525021546","DocURL":"http://www-wds.worldbank.org/servlet/WDSServlet?pcont=details&eid=000333037_20100525021546","DocDate":"12-MAY-2010"},{"DocTypeDesc":"Integrated Safeguards Data Sheet (ISDS),  Vol.1","DocType":"ISDS","EntityID":"000262044_20100408091234","DocURL":"http://www-wds.worldbank.org/servlet/WDSServlet?pcont=details&eid=000262044_20100408091234","DocDate":"06-APR-2010"},{"DocTypeDesc":"Project Information Document (PID),  Vol.1","DocType":"PID","EntityID":"000104615_20100401114419","DocURL":"http://www-wds.worldbank.org/servlet/WDSServlet?pcont=details&eid=000104615_20100401114419","DocDate":"11-MAR-2010"},{"DocTypeDesc":"Manual (MAN),  Vol.4","DocType":"MAN","EntityID":"000334955_20100326032036","DocURL":"http://www-wds.worldbank.org/servlet/WDSServlet?pcont=details&eid=000334955_20100326032036","DocDate":"18-FEB-2010"},{"DocTypeDesc":"Manual (MAN),  Vol.2","DocType":"MAN","EntityID":"000334955_20100326031627","DocURL":"http://www-wds.worldbank.org/servlet/WDSServlet?pcont=details&eid=000334955_20100326031627","DocDate":"18-FEB-2010"},{"DocTypeDesc":"Manual (MAN),  Vol.1","DocType":"MAN","EntityID":"000334955_20100326031204","DocURL":"http://www-wds.worldbank.org/servlet/WDSServlet?pcont=details&eid=000334955_20100326031204","DocDate":"18-JAN-2010"},{"DocTypeDesc":"Manual (MAN),  Vol.3","DocType":"MAN","EntityID":"000334955_20100326031831","DocURL":"http://www-wds.worldbank.org/servlet/WDSServlet?pcont=details&eid=000334955_20100326031831","DocDate":"18-JAN-2010"},{"DocTypeDesc":"Integrated Safeguards Data Sheet (ISDS),  Vol.1","DocType":"ISDS","EntityID":"000101930_20091222170557","DocURL":"http://www-wds.worldbank.org/servlet/WDSServlet?pcont=details&eid=000101930_20091222170557","DocDate":"18-DEC-2009"},{"DocTypeDesc":"Project Information Document (PID),  Vol.1","DocType":"PID","EntityID":"000262044_20091211153455","DocURL":"http://www-wds.worldbank.org/servlet/WDSServlet?pcont=details&eid=000262044_20091211153455","DocDate":"11-DEC-2009"}],"countryname":"Republic of Turkey","ccsa_practice_name":"Jobs"}},"facets":{}}